CREATEDDATE,DISTRICT,FACILITYID,LASTUPDATEDDATE,LATITUDE,LONGITUDE,PERMITENTRANCEACCESSIBLE,PERMITENTRANCEDESCRIPTION,PERMITENTRANCEID,PERMITENTRANCENAME,PERMITENTRANCETYPE,TOWN
"2014-05-02 18:31:41","Gunflint District","233396","2018-07-05 05:15:58","48.0625","-90.4394444444","No","Method of travel is paddle. Access is from West Bearskin Lake with a 70-rod portage to Duncan Lake and an 80-rod portage to Rose.  For more information, please call the Gunflint Ranger Station at 218-387-1750.","1","Duncan Lake (op)","Entry Point","Grand Marais"
"2014-05-02 18:31:41","LaCroix District","233396","2018-07-05 05:15:58","47.9144","-92.322","No","Method of travel is day use motor. 25 h.p. motor maximum. Access is from Lake Vermilion via a 180-rod portage suitable for portage wheels. Commercial portage service available. For more information, please call the LaCroix Ranger District at in Cook 218-666-0020.","2","Trout Lake (dm)","Entry Point","Cook"
"2014-05-02 18:31:41","Kawishiwi District","233396","2018-07-05 05:15:58","47.9533333333","-91.7207898333","No","Method of travel is day use motor. 25 h.p. motor limit. Access is a boat landing at Fall Lake. Valid on Fall, Newton, and Basswood Lakes (except the paddle only area of Basswood).  For more information, please contact the Kawishiwi Ranger Station in Ely at 218-365-7561.","3","Fall Lake and Beyond (dm,dc)","Entry Point","Ely"
"2014-05-02 18:31:41","Gunflint District","233396","2018-07-05 05:15:58","47.91087","-90.6544498333","No","Method of travel is hiking. Trailhead is on Forest Road 326, one third of a mile south of the Brule Lake parking lot. Park at Brule Lake. Total trail distance 7 miles.  Connects with Brule Lake Trail; access to Eagle Mountain.  For more information, please call the Gunflint Ranger Station at 218-387-1750.","4","Brule Lake Trail (oh)","Entry Point","Grand Marais"
"2014-05-02 18:31:41","Kawishiwi District","233396","2018-07-05 05:15:58","47.955727","-91.5622198333","No","Method of travel is paddle. Access the North Kawishiwi River through Ojibway Lake and Triangle Lake utilizing two portages.  For more information,  contact the Kawishiwi Ranger Station at 218-365-7561.","5","North Kawishiwi River (op)","Entry Point","Ely"
"2014-05-02 18:31:41","Kawishiwi District","233396","2018-07-05 05:15:58","47.977333","-91.4322898333","No","Method of travel is paddle or motor. Motor use OR possession requires an overnight motor permit (25 h.p. maximum). Access is a boat landing or canoe launch at Snowbank Lake. For more information, contact the Kawishiwi Ranger Station at 218-365-7561.","6","Snowbank Lake (op,om)","Entry Point","Ely"
"2014-05-02 18:31:41","Gunflint District","233396","2018-07-05 05:15:58","48.0541666667","-90.0538888889","No","Method of travel is paddle.  Access from Little John, down the Royal River with an 88-rod and a 160-rod portage to get to North Fowl Lake.  Border lake between U.S. and Canada. For more information, please call the Gunflint Ranger Station at 218-387-1750.","7","North Fowl Lake (op)","Entry Point","Grand Marais"
"2014-05-02 18:31:41","Gunflint District","233396","2018-07-05 05:15:58","47.9547","-90.4423","No","Method of travel is paddle. Access is a 97-rod portage from the parking area.  For more information, please call the Gunflint Ranger Station at 218-387-1750.","8","Ram Lake (op)","Entry Point","Grand Marais"
"2014-05-02 18:31:41","Kawishiwi District","233396","2018-07-05 05:15:58","48.0918118333","-91.9907198333","No","Method of travel is paddle. Access LaPond Lake with a 160 rod portage from Big Lake. For more information, please contact the Kawishiwi Ranger Station in Ely at 218-365-7561","9","From Big Lake (op)","Entry Point","Ely"
"2014-05-02 18:31:41","Gunflint District","233396","2018-07-05 05:15:58","48.077964","-90.49696","No","Method of travel is hiking only (if paddling, use entry #60). 4 mile hike. No parking available. For more information, please call the Gunflint Ranger Station at 218-387-1750.","10","Partridge Lake Trail (oh)","Entry Point","Grand Marais"
"2014-05-02 18:31:41","Kawishiwi District","233396","2018-07-05 05:15:58","47.96824","-91.463684","No","Method of travel is hiking. Loop option includes 27 miles of the Snowbank Trail, plus the 46 mile Kekekabic Trail that continues to the east side trail head. For more information, please contact the Kawishiwi Ranger Station in Ely at 218-365-7561.","11","Kekekabic Trail (west) /Snowbank (oh)","Entry Point","Ely"
"2014-05-02 18:31:41","Gunflint District","233396","2018-07-05 05:15:58","48.0715988333","-90.383813","No","Method of travel is hiking. 53 mile hiking trail. Shorter options available For more information, please call the Gunflint Ranger Station in Grand Marais at (218)387-1750.","12","Border Route Trail (center) (oh)","Entry Point","Grand Marais"
"2014-05-02 18:31:41","Tofte District","233396","2018-07-05 05:15:58","47.92566","-90.6449318333","No","Method of travel is paddle. The access is a boat landing at Brule Lake. Large lake with many campsites.  For more information, please call the Tofte Ranger Station in Tofte at 218-663-7280.","13","Brule Lake (op)","Entry Point","Tofte"
"2014-05-02 18:31:41","Gunflint District","233396","2018-07-05 05:15:58","48.120834","-90.84028","No","Method of travel is paddle. Access from the canoe landing at Larch Creek. For more information, please call the Gunflint Ranger Station at 218-387-1750.","14","Larch Creek (op)","Entry Point","Grand Marais"
"2014-05-02 18:31:41","Tofte District","233396","2018-07-05 05:15:58","47.79111","-91.3191698333","No","Method of travel is paddle. Island River has two small portages, which lead to the Isabella River. For more information, please call the Tofte Ranger Station in Tofte at 218-663-7280.","15","Island River (op)","Entry Point","Isabella"
"2014-05-02 18:31:41","Gunflint District","233396","2018-07-05 05:15:58","48.1820548333","-90.886116","No","Method of travel is day use motor. 25 h.p. motor limit. No motors allowed (use or possession) west of American Point. Access to Canada. For more information, please contact the Gunflint Ranger Station in Grand Marais at 218-387-1750.","16","Saganaga Lake (dm,dc)","Entry Point","Grand Marais"
"2014-05-02 18:31:41","Gunflint District","233396","2018-07-05 05:15:58","48.0701972222","-90.3752","No","Method of travel is paddle or motor. 10 h.p. maximum.  Access is boat launch on Clearwater Lake.  For more information, please call the Gunflint Ranger Station at 218-387-1750.","17","Clearwater Lake (op,om)","Entry Point","Grand Marais"
"2014-05-02 18:31:41","Gunflint District","233396","2018-07-05 05:15:58","48.0847222222","-90.62","No","Method of travel is hiking. 53 mile hiking trail. Shorter options available. For more information, please call the Gunflint Ranger Station in Grand Marais at (218)387-1750.","18","Border Route Trail (west) (oh)","Entry Point","Grand Marais"
"2014-05-02 18:31:41","Gunflint District","233396","2018-07-05 05:15:58","47.9452798333","-90.4197198333","No","Method of travel is paddle. Access is a 72-rod portage from small parking area into Bower Trout.  For more information, please call the Gunflint Ranger Station in Grand Marais at 218-387-1750.","19","Bower Trout Lake (op)","Entry Point","Grand Marais"
"2014-05-02 18:31:41","Gunflint District","233396","2018-07-05 05:15:58","48.0668378333","-90.3999708333","No","Method of travel is paddle. Access is from West Bearskin Lake with a 60-rod portage to Daniels Lake and a 665-rod portage to Rose Lake.  For more information, please call the Gunflint Ranger Station at 218-387-1750.","20","Daniels Lake (op)","Entry Point","Grand Marais"
"2014-05-02 18:31:41","Kawishiwi District","233396","2018-07-05 05:15:58","48.0630555556","-91.9294444444","No","Method of travel is paddle. Access Angleworm Lake with a 640 rod portage. Some trip options with additional portages. For more information, please contact the Kawishiwi Ranger Station in Ely at 218-365-7561.","21","Angleworm Lake (op)","Entry Point","Ely"
"2014-05-02 18:31:41","Gunflint District","233396","2018-07-05 05:15:58","48.0425","-90.365","No","Method of travel is day use motor. 25 h.p. motor limit. No motors on Alder or Canoe Lakes. For more information, please contact the Gunflint Ranger Station in Grand Marais at 218-387-1750.","22","East Bearskin (dm)","Entry Point","Grand Marais"
"2014-05-02 18:31:41","Alpine Lakes","233273","2018-07-05 05:15:58","47.7109444444","-120.708055556","No","The Snow Zone includes the Snow Lakes and Nada Lake basin, and the Snow Creek drainage. A permit for this zone allows visitors to use any established campsite within the zone. The area is mostly forested, and can be more forgiving to campers during bad weather than the other permit zones, but still has great views of the rugged surrounding peaks. The trail climbs steadily for 6.5 miles from the Snow Lakes Trailhead, gaining 4100 feet en route to Upper Snow Lake. Beyond Snow Lakes, the trail becomes more primitive in character, ascending steeply over granite slabs another 1400 feet to Lake Viviane, which is within the Core Enchantment Permit Zone. Groups with a Snow Zone permit are welcome to day hike throughout the Core Enchantments, but must camp within the Snow Lake Zone. There are no established campsites between Upper Snow and Lake Viviane.","23","Snow Zone","Entry Point - Zone 2",""
"2014-05-02 18:31:41","Tofte District","233396","2018-07-05 05:15:58","47.8118818333","-91.0853198333","No","Method of travel is paddle. Access is a 15-rod portage to Hog Creek leading into Perent Lake. For more information, please call the Tofte Ranger Station in Tofte at 218-663-7280.","24","Hog Creek (op)","Entry Point","Isabella"
"2014-05-02 18:31:41","LaCroix District","233396","2018-07-05 05:15:58","48.2997222222","-92.4266666667","No","Method of travel is motor or paddle. Motor use OR possession requires an overnight motor permit (unlimited motor h.p.). Enter from Crane Lake. Must camp all nights on Lac LaCroix (day trips to other lakes are permitted). Use only after Entry Point 12 is full.","25","Lac LaCroix ONLY (op, om)","Entry Point-Restricted","Cook"
"2014-05-02 18:31:41","Tofte District","233396","2018-07-05 05:15:58","47.776","-91.4885","No","Method of travel is paddle. Access is a 20-rod portage to the Little Isabella River. Several short portages before you reach the Isabella River. For more information, please call the Tofte Ranger Station at 218-663-7280.","26","Little Isabella River (op)","Entry Point","Isabella"
"2014-05-02 18:31:41","Alpine Lakes","233273","2018-07-05 05:15:58","47.5285833333","-120.82","No","The Stuart Zone includes the Stuart Lake Trail from the trailhead to its end, and includes the entire Stuart Lake basin. The Stuart Zone also includes the Horseshoe Lake area, and much of the Mountaineer Creek drainage. Visitors with a Stuart Lake Zone permit may camp at any established campsite along the Stuart Lake trail, or at Stuart Lake. The Stuart Lake Trail gains about 1700 feet over 4.5 miles, at a fairly steady grade, making it an easier hike than going to Colchuck or Snow Lakes. Stuart Lake is in a mostly forested setting, with great views of Mount Stuart and offers good fishing. The permit zone boundary excludes climber bivouac sites immediately below Mount Stuart, Sherpa Peak, and Argonaut Peak, such as those near Goat Pass, where a permit is therefore not needed to camp. Visitors with pack or saddle stock are allowed in this area only from the first Saturday after Labor Day until year-end, and cannot camp within 200 feet of any lake.","27","Stuart  Zone","Entry Point - Zone 4",""
"2014-05-02 18:31:41","Alpine Lakes","233273","2018-07-05 05:15:58","47.5368888889","-120.812222222","No","The Eightmile/Caroline Permit Zone includes Eightmile and Little Eightmile Lakes, much of Eightmile Creek, both Caroline Lakes, the basin east of Windy Pass, and the ridge from Windy Pass to the summit of Mount Cashmere. The hike to the Eightmile Lakes is considered easy to moderate difficulty, gaining just 1200 feet of elevation in 3.3 miles. Reaching Lake Caroline, however, entails an additional 1700 foot elevation gain, and Windy Pass is another 1200 foot elevation climb beyond that. Eightmile Lake is mostly forested, but with expansive views of surrounding peaks. Lake Caroline is much smaller and more subalpine, and Windy Pass is well-named with its exposed, rugged setting above tree line. Visitors to this zone with pack or saddle stock must use the designated stock camp at Little Caroline Lake, or other suitable sites in the Windy Pass area, as stock are not allowed within 200 feet of any lake.","28","Eightmile/Caroline Zone","Entry Point - Zone 5",""
"2014-05-02 18:31:41","Alpine Lakes","233273","2018-07-05 05:15:58","47.5285833333","-120.82","No","The Colchuck Zone includes the entire Colchuck Lake Trail from its junction with the Stuart Lake Trail to a contour line mid-slope below Aasgard Pass, at 6500 feet (below the prominent waterfall.) Camping immediately below Aasgard Pass with a Colchuck permit is thus not allowed. The trail to Colchuck Lake is 4.2 miles long, gaining 2100 feet; the last 1.6 miles climbing steeply on a rougher tread. Colchuck Lake offers a subalpine setting with spectacular views of Aasgard Pass and Dragontail Peak. It serves as a good base camp for those wishing to visit the Core Enchantments without hauling a full pack. Visitors with a Colchuck Zone permit may camp in any established campsite at Colchuck Lake. Climbers may also use established bivouac sites below Colchuck Col and elsewhere in the upper Colchuck Lake basin. Visitors with a Colchuck Zone Permit may day-hike or climb throughout the Core Enchantment Zone, but must camp within the Colchuck Zone.","29","Colchuck Zone","Entry Point - Zone 3",""
"2014-05-02 18:31:41","Alpine Lakes","233273","2018-07-05 05:15:58","47.5442777778","-120.708055556","No","The Core Enchantment Zone includes not only the high lake basin typically called The Enchantments, but also Coney, Mesa, Earle, Shield, Toketie, and Crystal Lakes. Visitors with a Core Enchantment Zone Permit may use any established camp within that zone, and may also camp within the Colchuck Lake and Snow Lake Permit Zones while approaching or exiting the Core Enchantment Zone. Two trails access the Core Enchantment Zone; the same trails that access the Colchuck Lake and Snow Lake Zones. The approach via Colchuck Lake ascends steeply to Aasgard Pass, with loose rock and gravel underfoot and some boulder-hopping. The approach from Snow Lake is on more solid ground, but ascends exposed slabs of bedrock that can be treacherous, especially if wet or icy. By either route the terrain is strenuous, most visitors will find themselves using their hands in places, even when conditions are good.","30","Core Enchantment Zone","Entry Point - Zone 1",""
"2014-05-02 18:31:41","Yosemite Wilderness","234652","2018-07-05 05:15:58","0","0","No","Rising nearly 5,000 feet above Yosemite Valley and 8,800 feet above sea level, Half Dome is a Yosemite icon and a great challenge to many hikers. Despite an 1865 report declaring it was perfectly inaccessible, being probably the only one of the prominent points about the Yosemite which never has been, and never will be, trodden by human foot, George Anderson reached the summit in 1875, in the process creating the predecessor to todays cable route.The 14 to 16-mile round-trip hike to Half Dome is not for you if youre out of shape or unprepared. You will be gaining elevation (a total of 4,800 feet) most of your way to the top of Half Dome. Most say the reward is worth the effort. Along the way, youll encounter outstanding views of Vernal and Nevada Falls, Liberty Cap, Half Dome, and--from the subdome and summit--panoramic views of Yosemite Valley and the High Sierra.","31","Half Dome Cables","Entry Point","Yosemite"
"2014-05-02 18:31:41","","233304","2018-07-05 05:15:58","63.7365805556","-148.897433333","No","Since the construction of Highway 3 in 1972, access to the interior of the park has mainly limited to bus service.  Beginning in the early 70s, anyone who wanted to could drive the road after the bus system shut down for the season in mid-September. In those early years, only a few intrepid souls braved the poor roads to get here and drive into the park.  As the years went by, the popularity of this opportunity to visit the park in late autumn grew. In the late 80s the open to all comers offer became unmanageable when almost 2000 vehicles per day came into the park. There were traffic jams, people camping illegally, problems with pets and wildlife, food storage and sanitation. In 1990, park management decided to implement a lottery where people could apply for a chance to drive the road over a period of four days after the bus season ended. Applications are accepted from May 1st to May 31st and winners are announced on June 15th.","32","Denali Road Entry","Entry Point",""
"2014-05-02 18:31:41","LaCroix District","233396","2018-07-05 05:15:58","48.2994444444","-92.4266666667","No","Method of travel is motor or paddle. Motor use OR possession requires an overnight motor permit (unlimited motor h.p.). Enter from Crane Lake. NOTE: This is NOT the entry point for Trout Lake (EP#1). Trip options for paddlers with additional portages. On US side, motors are only allowed up to edge of Snow Bay on Lac LaCroix.  For more information, please call the LaCroix Ranger District in Cook at 218-666-0020.QUETICO PROVINCIAL PARK:  Lac La Croix Ranger Station is available for the nearby Quetico entry point lakes of Threemile Lake (41), Maligne River (42), McAree Lake (43), and Bottle River (44).   For more details, please visit: https://www.ontarioparks.com/park/quetico/camping","33","Little Vermilion Lake (op, om)","Entry Point","Cook"
"2014-05-02 18:31:41","Tofte District","233396","2018-07-05 05:15:58","47.7723972222","-91.387","No","Method of travel is paddle.  Access is a 232-rod portage into the lake.  Bog Lake has four campsites, and does not provide access to other lakes.  For more information, please call the Tofte Ranger Station at 218-663-7280.","34","Bog Lake (op)","Entry Point","Isabella"
"2014-05-02 18:31:41","LaCroix District","233396","2018-07-05 05:15:58","48.14271","-92.20774","No","Method of travel is paddle. Difficult route. NOTE: Use EP #14 for Little Indian Sioux travel NORTH of the Echo Trail. For more information, please call the LaCroix Ranger District in Cook at 218-666-0020.","35","Little Indian Sioux SOUTH (op)","Entry Point","Cook"
"2014-05-02 18:31:41","Kawishiwi District","233396","2018-07-05 05:15:58","48.0949998333","-91.989","No","Method of travel is paddle. Access is a 480 rod portage to the Stuart River.  For more information, please contact the Kawishiwi Ranger Station in Ely at 218-365-7561.","36","Stuart River (op)","Entry Point","Ely"
"2014-05-02 18:31:41","Gunflint District","233396","2018-07-05 05:15:58","48.0436111111","-90.0588888889","No","Method of travel is hiking. 53 mile hiking trail. Shorter options available. For more information, please call the Gunflint Ranger Station in Grand Marais at (218)387-1750.","37","Border Route Trail (east) (oh)","Entry Point","Grand Marais"
"2014-05-02 18:31:41","Kawishiwi District","233396","2018-07-05 05:15:58","47.9777777778","-91.4322898333","No","Method of travel is day use motor. 25 h.p. motor limit. For more information, please contact the Kawishiwi Ranger Station in Ely at 218-365-7561.","38","Snowbank Lake (dm)","Entry Point","Ely"
"2014-05-02 18:31:41","LaCroix District","233396","2018-07-05 05:15:58","48.12165","-92.2854398333","No","Method of travel is hiking. 8 miles of hiking trail or 2 mile option. No loop options. For more information, please call the LaCroix Ranger District in Cook at 218-666-0020.","39","Norway Trail (oh)","Entry Point","Cook"
"2014-05-02 18:32:16","LaCroix District","233396","2018-07-05 05:15:58","48.1457198333","-92.2102","No","Method of travel is paddle. Access is a 40-rod portage heading north from the Echo Trail to the river. Many trip options with additional portages. For more information, please call the LaCroix Ranger District in Cook at 218-666-0020.","40","Little Indian Sioux NORTH (op)","Entry Point","Cook"
"2014-05-02 18:32:16","Kawishiwi District","233396","2018-07-05 05:15:58","47.8911111111","-91.7377777778","No","Method of travel is paddle or motor. Motor use OR possession on South Farm Lake requires an overnight motor permit (25 h.p. maximum).  Paddlers access North Kawishiwi from Farm Lake.  Contact the Kawishiwi Ranger Station in Ely at 218-365-7561.","41","From Farm Lake (op,om)","Entry Point","Ely"
"2014-05-02 18:32:16","Kawishiwi District","233396","2018-07-05 05:15:58","48.0327777778","-91.8319444444","No","Method of travel is paddle. Three accesses into Mudro Lake involve portages ranging from 20 to 185 rods.  For more information, please contact the Kawishiwi Ranger Station in Ely at 218-365-7561.","42","Mudro Lake (op)","Entry Point","Ely"
"2014-05-02 18:32:16","Kawishiwi District","233396","2018-07-05 05:15:58","47.8911111111","-91.7377777778","No","Method of travel is day use motor. 25 h.p. motor limit. For more information, please contact the Kawishiwi Ranger Station in Ely at 218-365-7561.","43","South Farm Lake (dm)","Entry Point","Ely"
"2014-05-02 18:32:16","Kawishiwi District","233396","2018-07-05 05:15:58","47.9530555556","-91.7207898333","No","Method of travel is day use motor. 25 h.p. motor limit. Access is a boat landing at Fall Lake. Valid only on Fall Lake, not Newton or Basswood. For more information, please contact the Kawishiwi Ranger Station in Ely at 218-365-7561.","44","Fall Lake ONLY (dm)","Entry Point","Ely"
"2014-05-02 18:32:16","Gunflint District","233396","2018-07-05 05:15:58","48.1475","-90.8692972222","No","Method of travel is day use motor. 10 h.p. motor limit. No motors allowed (use or possession) west of Three Mile Island. For more information, please contact the Gunflint Ranger Station in Grand Marais at 218-387-1750.","45","Seagull Lake (dm)","Entry Point","Grand Marais"
"2014-05-02 18:32:16","Gunflint District","233396","2018-07-05 05:15:58","47.8652298333","-90.547256","No","Method of travel is hiking. The trail is 3.5 miles to the top (one way). Provides access to Brule lake Trail.  For more information, please call the Gunflint Ranger Station at 218-387-1750.","46","Eagle Mountain Trail (oh)","Entry Point","Grand Marais"
"2014-05-02 18:32:16","Kawishiwi District","233396","2018-07-05 05:15:58","47.9775","-91.4322222222","No","Method of travel is paddle. Access is a boat landing at Snowbank Lake. Must camp ALL NIGHTS on Snowbank Lake. (paddle day trips to other lakes are permitted) For more information, please contact the Kawishiwi Ranger Station in Ely at 218-365-7561.","47","Snowbank Lake RESTRICTED (op)","Entry Point","Ely"
"2014-05-02 18:32:16","Tofte District","233396","2018-07-05 05:15:58","47.83906","-91.10222","No","Method of travel is paddle. Access is a canoe landing at Kawishiwi Lake.  For more information, please call the Tofte Ranger District in Tofte at 218-663-7280.","48","Kawishiwi Lake (op)","Entry Point","Tofte"
"2014-05-02 18:32:16","Kawishiwi District","233396","2018-07-05 05:15:58","47.9883333333","-91.4977898333","No","Method of travel is day use motor. 25 h.p. motor limit. Valid only on Moose, Newfound, and Sucker Lakes, not Basswood Lake. For more information, please contact the Kawishiwi Ranger Station in Ely at 218-365-7561.","49","Moose-NEWFND-Sucker ONLY (DM,DC)","Entry Point","Ely"
"2014-05-02 18:32:16","Gunflint District","233396","2018-07-05 05:15:58","48.052768","-90.538931","No","Method of travel is paddle. Access from Poplar Lake (320-rod portage) or Iron Lake (230-rod portage). For more information, please call the Gunflint Ranger Station at 218-387-1750.","50","Skipper & Portage Lakes (op)","Entry Point","Grand Marais"
"2014-05-02 18:32:16","Kawishiwi District","233396","2018-07-05 05:15:58","47.939754","-91.47766","No","This is a restricted Lake One permit. Camping on the Kawishiwi River west of Confusion Lake is NOT allowed.Camping east and south of the Lake One landing IS allowed including Lakes One through Four, Hudson, Insula, and beyond.","51","Lake One #30F (op)","Entry Point","Ely"
"2014-05-02 18:32:16","LaCroix District","233396","2018-07-05 05:15:58","47.9337","-92.0268998333","No","Method of travel is paddle. Access from Burntside Lake with a 360-rod portage to Crab Lake. For more information, please contact the LaCroix Ranger Station in Cook at 218-666-0020.","52","Crab Lake (op)","Entry Point","Cook"
"2014-05-02 18:32:16","Tofte District","233396","2018-07-05 05:15:58","47.8009448333","-91.3149598333","No","Method of travel is paddle. Access is a 70 rod portage to the lake.  For more information, please call the Tofte Ranger Station in Tofte at 218-663-7280.","53","Isabella Lake (op)","Entry Point","Isabella"
"2014-05-02 18:32:16","Gunflint District","233396","2018-07-05 05:15:58","48.1820548333","-90.88616","No","Method of travel is paddle.  Must camp ALL nights on Saganaga Lake (day trips to other lakes are permitted). Large lake with many campsites and easy access. For more information, please call the Gunflint Ranger Station at 218-387-1750.","54","Saganaga Lake ONLY (op)","Entry Point","Grand Marais"
"2014-05-02 18:32:16","Tofte District","233396","2018-07-05 05:15:58","47.863503","-90.8874298333","No","Method of travel is paddle.  Access is a canoe landing at Sawbill Lake.  For more information, please call the Tofte Ranger Station in Tofte at 218-663-7280.","55","Sawbill Lake (op)","Entry Point","Tofte"
"2014-05-02 18:32:16","Gunflint District","233396","2018-07-05 05:15:58","48.039743","-90.5109498333","No","Method of travel is paddle.  Access from Poplar Lake by 51-rod portage to Lizz Lake and 100-rod portage to Swamp Lake.  NOTE: For entry at Meeds Lake see Entry Point #48.  For more information, please call the Gunflint Ranger Station at 218-387-1750.","56","Lizz and Swamp Lakes (op)","Entry Point","Grand Marais"
"2014-05-02 18:32:16","Gunflint District","233396","2018-07-05 05:15:58","48.0547222222","-90.0569444444","No","Method of travel is paddle.  Access from Little John Lake with a 10-rod portage to John Lake.  For more information, please call the Gunflint Ranger Station at 218-387-1750.","57","John Lake (op)","Entry Point","Grand Marais"
"2014-05-02 18:32:16","Gunflint District","233396","2018-07-05 05:15:58","48.1820548333","-90.886116","No","Method of travel is paddle or motor. 25 h.p. motor limit.  No motors (use or possession) west of American Point.  Access to Canada (the Crownland and Quetico Park). Large lake with many campsites and easy access.  For more information, please call the Gunflint Ranger Station at 218-387-1750.QUETICO PROVINCIAL PARK:  Cache Bay Ranger Station is available for the nearby Quetico entry point lakes of Knife Lake (71), Man Chain Lakes (72), Falls Chain Lakes (73), and Boundary Point, Saganagons Lake (74).  For more details, please visit:  https://www.ontarioparks.com/park/quetico/campingl","58","Saganaga Lake (op,om)","Entry Point","Grand Marais"
"2014-05-02 18:32:16","","233396","2018-07-05 05:15:58","48.0466666667","-91.5561111111","No","Use only when trip originates in Canada, then passes into the BWCAW.","59","From Canada","Entry Point",""
"2014-05-02 18:32:16","Tofte District","233396","2018-07-05 05:15:58","47.8453","-90.8170098333","No","Method of travel is paddle. Access is a boat landing at Baker Lake with a 10 rod portage into Peterson lake to reach the first campsite. For more information, please call the Tofte Ranger Station in Tofte at 218-663-7280.","60","Baker Lake (op)","Entry Point","Tofte"
"2014-05-02 18:32:16","Gunflint District","233396","2018-07-05 05:15:58","48.0758333333","-90.8219444444","No","Method of travel is paddle.  Access is through the Cross River with a 50 and a 40-rod portage to Ham Lake and a 24 rod portage to Cross Bay Lake. Many trip options with additional portages. For more information, please call the Gunflint Ranger Station at 218-387-1750.","61","Cross Bay Lake (op)","Entry Point","Grand Marais"
"2014-05-02 18:32:16","LaCroix District","233396","2018-07-05 05:15:58","47.9144","-92.322","No","Method of travel is motor or paddle. 25 h.p. motor maximum. Motor use OR possession requires an overnight motor permit. Access is from Vermilion Lake via a 60-rod canoe portage or a 180-rod portage, which allows the use of portage wheels. For more information, please call the LaCroix Ranger District in Cook at 218-666-0020.","62","Trout Lake (op,om)","Entry Point","Cook"
"2014-05-02 18:32:16","Tofte District","233396","2018-07-05 05:15:58","47.774445","-91.52639","No","Method of travel is paddle. Access is a 160-rod portage to the river and several short portages before reaching Bald Eagle Lake. Another trip option is a 141-rod portage to the Isabella River.  For more information, please contact the Tofte Ranger Station in Tofte at 218-663-7280.","63","Snake River (op)","Entry Point","Isabella"
"2014-05-02 18:32:16","Kawishiwi District","233396","2018-07-05 05:15:58","47.959164","-91.5990698333","No","Method of travel is paddle. Access to Wood Lake is a 180 rod portage.  For more information, please contact the Kawishiwi Ranger Station in Ely at 218-365-7561.","64","Wood Lake (op)","Entry Point","Ely"
"2014-05-02 18:32:16","Kawishiwi District","233396","2018-07-05 05:15:58","47.9528","-91.7207898333","No","Method of travel is paddle or motor. Motor use OR possession requires an overnight motor permit (25 h.p. maximum).  Access to Basswood for motors or paddlers.  Portage wheels are allowed on Fall, Newton, Pipestone portages.  Contact the Kawishiwi Ranger Station in Ely at 218-365-7561.","65","Fall Lake (op,om)","Entry Point","Ely"
"2014-05-02 18:32:16","Tofte District","233396","2018-07-05 05:15:58","47.80078","-91.318115","No","Method of travel is hiking. 30 mile loop trail. For more information, please call the Tofte Ranger Station in Tofte at 218-663-7280.","66","Pow Wow Trail (oh)","Entry Point","Isabella"
"2014-05-02 18:32:16","LaCroix District","233396","2018-07-05 05:15:58","48.2183333333","-92.4661111111","No","Method of travel is hiking. 15 miles of trail accesses 4 lakes. Loop options. Three campsites accessible from the trail. For more information, please call the La Croix Ranger District in Cook at 218-666-0020","67","Herriman Lake Trail (oh)","Entry Point","Cook"
"2014-05-02 18:32:16","Kawishiwi District","233396","2018-07-05 05:15:58","47.939754","-91.47766","No","Method of travel is paddle. Access is a canoe landing at Lake One.  For more information, please contact the Kawishiwi Ranger Station in Ely at 218-365-7561.","68","Lake One (op)","Entry Point","Ely"
"2014-05-02 18:32:16","Kawishiwi District","233396","2018-07-05 05:15:58","47.8416666667","-91.6630555556","No","Method of travel is paddle. Access is a 140-rod portage to the river.  For more information, please contact the Kawishiwi Ranger Station in Ely at 218-365-7561.","69","South Kawishiwi River (op)","Entry Point","Ely"
"2014-05-02 18:32:16","Kawishiwi District","233396","2018-07-05 05:15:58","47.8422222222","-91.6313888889","No","Method of travel is paddle. Access is a 200-rod portage from the parking lot to Little Gabbro Lake.  For more information, please contact the Kawishiwi Ranger Station in Ely at 218-365-7561.","70","Little Gabbro Lake (op)","Entry Point","Ely"
"2014-05-02 18:32:16","Tofte District","233396","2018-07-05 05:15:58","47.9045868333","-90.66046","No","Method of travel is paddle. Access is a boat landing at Homer Lake.  For more information, please call the Tofte Ranger Station in Tofte at 218-663-7280.","71","Homer Lake (op)","Entry Point","Tofte"
"2014-05-02 18:32:16","Gunflint District","233396","2018-07-05 05:15:58","48.00139","-90.4097198333","No","Method of travel is paddle. Access is a 320-rod portage to Morgan Lake. No campsites on Morgan Lake- short portages to further lakes for campsites. For more information, please call the Gunflint Ranger Station at 218-387-1750.","72","Morgan Lake (op)","Entry Point","Grand Marais"
"2014-05-02 18:32:16","Gunflint District","233396","2018-07-05 05:15:58","48.0691666667","-90.8369444444","No","Method of travel is paddle.  Access is a canoe landing at Round Lake with a 142-rod portage to Missing Link.  For more information, please call the Gunflint Ranger Station at 218-387-1750.","73","Missing Link Lake (op)","Entry Point","Grand Marais"
"2014-05-02 18:32:16","Gunflint District","233396","2018-07-05 05:15:58","48.0847498333","-90.7563798333","No","Method of travel is paddle. Access Magnetic Lake and Granite River from Gunflint Lake. For more information, please call the Gunflint Ranger Station at 218-387-1750.","74","Magnetic Lake (op)","Entry Point","Grand Marais"
"2014-05-02 18:32:16","Gunflint District","233396","2018-07-05 05:15:58","48.0505555556","-90.0572222222","No","Method of travel is paddle.  Access through McFarland Lake with a 2-rod portage.  For more information, please call the Gunflint Ranger Station at 218-387-1750.","75","Pine Lake (op)","Entry Point","Grand Marais"
"2014-05-02 18:32:16","Kawishiwi District","233396","2018-07-05 05:15:58","47.9880555556","-91.4977777778","No","Method of travel is paddle or motor. Motor use OR possession requires an overnight motor permit (25 h.p. maximum).  Access to Basswood for motors or paddlers.  Portage wheels are allowed on Prairie Portage.  Contact the Kawishiwi Ranger Station in Ely at 218-365-7561.","76","Moose Lake (op,om)","Entry Point","Ely"
"2014-05-02 18:32:16","Kawishiwi District","233396","2018-07-05 05:15:58","48.0325","-91.8319444444","No","Method of travel is paddle. Three accesses into Mudro Lake involve portages ranging from 20 to 185 rods. Many trip options with additional portages (Restricted *no camping on Horse Lake for the duration of your trip). For more information, contact the Kawishiwi Ranger Station in Ely at 218-365-7561.","77","Mudro Lake RESTRICTED (op)","Entry Point","Ely"
"2014-05-02 18:32:16","Gunflint District","233396","2018-07-05 05:15:58","48.1472222222","-90.8692972222","No","Method of travel is paddle.  Access is a boat landing at Seagull Lake.  Must camp ALL nights on Seagull (day trips to other lakes are permitted). Large lake with several campsites.  For more information, please call the Gunflint Ranger Station at 218-387-1750.","78","Seagull Lake ONLY (op)","Entry Point","Grand Marais"
"2014-05-02 18:32:16","Gunflint District","233396","2018-07-05 05:15:58","48.0692","-90.8455","No","Method of travel is paddle. Access is a canoe landing at Round Lake with two 85-rod portages to Brant Lake.  For more information, please call the Gunflint Ranger Station at 218-387-1750.","79","Brant Lake (op)","Entry Point","Grand Marais"
"2014-05-02 18:32:16","Gunflint District","233396","2018-07-05 05:15:58","48.1058333333","-90.5655555556","No","Method of travel is paddle.  Access is from Gunflint Lake with a 10-mile paddle and two short portages to South Lake.  For more information, please call the Gunflint Ranger Station at 218-387-1750.","80","South Lake (op)","Entry Point","Grand Marais"
"2014-05-02 18:32:16","Gunflint District","233396","2018-07-05 05:15:58","48.0347","-90.2730972222","No","Method of travel is paddle. Can access Crocodile Lake from Crocodile River or East Bearskin. Must spend all nights on Crocodile Lake.  For more information, please call the Gunflint Ranger Station at 218-387-1750.","81","Crocodile River (op)","Entry Point","Grand Marais"
"2014-05-02 18:32:16","LaCroix District","233396","2018-07-05 05:15:58","48.08469","-92.0917798333","No","Method of travel is hiking. 2 miles to Big Moose Lake. No loop options. If paddling use entry point #8. For more information, please call the LaCroix Ranger District in Cook at 218-666-0020.","82","Big Moose Lake Trail (oh)","Entry Point","Cook"
"2014-05-02 18:32:16","Gunflint District","233396","2018-07-05 05:15:58","48.0445628333","-90.5373858333","No","Method of travel is paddle. Access from Poplar Lake into Meeds Lake with a 220 rod portage. Many options for trips with additional portages. NOTE: For entry at Lizz and Swamp Lakes see Entry Point #47. For more information, please call the Gunflint Ranger Station at 218-387-1750.","83","Meeds Lake (op)","Entry Point","Grand Marais"
"2014-05-02 18:32:16","Gunflint District","233396","2018-07-05 05:15:58","48.0893998333","-90.8242","No","Method of travel is hiking. 46 mile trail that continues to the west side trail head. Rolling terrain through several lakes. Minimal use. For more information, please call the Gunflint Ranger Station at 218-387-1750.","84","Kekekabic Trail (east) (oh)","Entry Point","Grand Marais"
"2014-05-02 18:32:16","Kawishiwi District","233396","2018-07-05 05:15:58","47.9952777778","-91.9588888889","No","Method of travel is paddle. Access is a 90 rod portage to Slim Lake. Portages to three additional lakes. For more information, please contact the Kawishiwi Ranger Station in Ely at 218-365-7561.","85","Slim Lake (op)","Entry Point","Ely"
"2014-05-02 18:32:16","Kawishiwi District","233396","2018-07-05 05:15:58","47.9886111111","-91.4977898333","No","Method of travel is day use motor. 25 h.p. motor limit. Valid on Moose, Newfound, Sucker and Basswood Lakes (except the paddle only portion of Basswood). Commercial portage service available.  For more information, please contact the Kawishiwi Ranger Station in Ely at 218-365-7561.QUETICO PROVINCIAL PARK: Prairie Portage Ranger Station is available for the nearby Quetico entry point lakes of Basswood River (51), Sarah Lake (52), Kahshahpiwi Lake (53), Agnes Lake (61), and Carp Lake (62).  For more details, please visit: https://www.ontarioparks.com/park/quetico/camping","86","Moose-Basswood via Prairie Portage (dm,dc)","Entry Point","Ely"
"2014-05-02 18:32:16","Gunflint District","233396","2018-07-05 05:15:58","48.0356111111","-90.3978055556","No","Method of travel is paddle or motor. 25 h.p. motor limit.  Motors allowed on East Bearskin Lake only.  No motors on Alder or Canoe Lakes.  For more information, please call the Gunflint Ranger Station at 218-387-1750.","87","East Bearskin (op,om)","Entry Point","Grand Marais"
"2014-05-02 18:32:16","Tofte District","233396","2018-07-05 05:15:58","47.92566","-90.6449318333","No","Method of travel is paddle. The access is a boat landing at Brule Lake. Large lake with many campsites. Must camp all nights on Brule Lake (day trips to other lakes are permitted). For more information, please call the Tofte Ranger Station at 218-663-7280.","88","Brule Lake ONLY (op)","Entry Point","Tofte"
"2014-05-02 18:32:16","LaCroix District","233396","2018-07-05 05:15:58","48.122903","-92.10062","No","Method of travel is paddle. Access is a 160-rod portage heading north from the Echo Trail to the Moose River.  For more information, please call the LaCroix Ranger District in Cook at 218-666-0020","89","Moose/Portage River NORTH (op)","Entry Point","Cook"
"2014-05-02 18:32:16","LaCroix District","233396","2018-07-05 05:15:58","48.0722","-92.1313098333","No","Method of travel is paddle. Access is a canoe landing and three portages to enter Big Moose Lake. NOTE. Use EP #16 for Moose River travel NORTH of the Echo Trail. For more information, please call the LaCroix Ranger District in Cook at 218-666-0020.","90","Moose River SOUTH (op)","Entry Point","Cook"
"2014-05-02 18:32:16","Gunflint District","233396","2018-07-05 05:15:58","48.0711968333","-90.381775","No","Method of travel is day use motor. 10 h.p. motor limit. No motors allowed (use or possession) west of Three Mile Island. For more information, please contact the Gunflint Ranger Station in Grand Marais at 218-387-1750.","91","Clearwater Lake (dm)","Entry Point","Grand Marais"
"2014-05-02 18:32:16","Gunflint District","233396","2018-07-05 05:15:58","48.1469444444","-90.8692972222","No","Method of travel is paddle or motor. 10 h.p. motor limit.  No motors (use or possession) west of Three Mile Island.  Large lake with several campsites.  Landing at Seagull lake. For more information, please call the Gunflint Ranger Station at 218-387-1750.","92","Seagull Lake (op,om)","Entry Point","Grand Marais"
"2014-05-02 18:32:16","Kawishiwi District","233396","2018-07-05 05:15:58","48.024","-91.9251","No","Method of travel is paddle. Access is an 80-rod portage to South Hegman. Trip options with additional portages. For more information, please contact the Kawishiwi Ranger Station in Ely at 218-365-7561.","93","South Hegman Lake (op)","Entry Point","Ely"
"2014-05-02 18:32:16","LaCroix District","233396","2018-07-05 05:15:58","48.14133","-92.19007","No","Method of travel is hiking. 25 mile loop. Primitive trail is not well-maintained. For more information, please call the LaCroix Ranger District in Cook at 218-666-0020.","94","Sioux-Hustler Trail (oh)","Entry Point","Cook"
"2014-05-02 18:32:16","LaCroix District","233396","2018-07-05 05:15:58","48.1382558333","-92.1288888889","No","Method of travel is hiking. Winter route to Lamb Lake 2.4miles. For more information, please call the LaCroix Ranger District in Cook at 218-666-0020.","95","Blandin Trail (oh)","Entry Point","Cook"
"2014-05-02 18:32:16","Kawishiwi District","233396","2018-07-05 05:15:58","48.0633333333","-91.9294444444","No","Method of travel is hiking. 12 mile loop trail. For more information, please contact the Kawishiwi Ranger Station in Ely at 218-365-7561.","96","Angleworm Lake Trail (oh)","Entry Point","Ely"
"2014-05-02 18:32:16","","249986","2018-07-05 05:16:24","0","0","No","Designated as walk-up only for use during the summer months.","97","PSN2","Non Zone North",""
"2014-05-02 18:32:16","","249986","2018-07-05 05:16:24","0","0","No","Designated as walk-up only for use during the summer months.","98","PSS15","Non Zone South",""
"2014-05-02 18:32:16","","249986","2018-07-05 05:16:24","0","0","No","Camping zone on the bench above Death Canyon, along the Teton Crest Trail. Hikers must take IGBC approved bear resistant food storage containers in this area. Free loan out of these containers is available at Grand Teton permit stations with a valid backcountry permit.","99","MCZ5","03 Mountain Camping Zones",""
"2014-05-02 18:32:16","","249986","2018-07-05 05:16:24","0","0","No","Three small sites surrounding Bearpaw Lake, just north of Leigh Lake. Boat in is possible for these sites, but you would need to dock your boat on the north end of Leigh Lake and walk in a half mile to the campsites. Most visitors hike in the 3.7 miles from Leigh Lake Trailhead. Each site has a bear box which can accommodate one typically sized cooler. Do not bring more food than can fit in the bear box.  These sites have a fire grates, which allow campfires unless restricted under high fire danger.","100","LL06","02 Leigh Lake",""
"2014-05-02 18:32:16","","249986","2018-07-05 05:16:24","0","0","No","Designated as walk-up only for use during the summer months.","101","PSS11","Non Zone South",""
"2014-05-02 18:32:16","","249986","2018-07-05 05:16:24","0","0","No","For information regarding the walk-in availability for this site, please call the park at: (307)739-3309.This site is currently still available for advanced reservations in May, September & October.This is a boat in only site. It has a bear box which can accommodate one typically sized cooler. Do not bring more food than can fit in the bear box. All Jackson Lake campsites require packing out solid human waste.  This site has a fire grate which allows campfires unless restricted under high fire danger.","102","JL07","01 Jackson Lake",""
"2014-05-02 18:32:16","","249986","2018-07-05 05:16:24","0","0","No","Non-motorized boat in only site. Has a bear box which can accommodate one typically sized cooler. Do not bring more food than can fit in the bear box.","103","LL03","02 Leigh Lake",""
"2014-05-02 18:32:16","","249986","2018-07-05 05:16:24","0","0","No","Group Site towards the western edge of Middle/South Fork Granite Group Site. These group sites have bear boxes for food storage.","104","MGS6","04 Mountain Group Sites",""
"2014-05-02 18:32:16","","249986","2018-07-05 05:16:24","0","0","No","Glacier below north side of Grand Teton in upper part of Glacier Gulch. Bear canisters may be required at ranger discretion.","105","OCS3","09 Other Climbing Sites",""
"2014-05-02 18:32:16","","249986","2018-07-05 05:16:24","0","0","No","Designated as walk-up only for use during the summer months.","106","PSN9","Non Zone North",""
"2014-05-02 18:32:16","","249986","2018-07-05 05:16:24","0","0","No","Group site on east side of Leigh Lake.   Large sandy beach with shallow water for swimming. Non-motorized boat accessible, or two mile hike in. Has two bear boxes which can each accommodate one typically sized cooler. Do not bring more food than can fit in the bear boxes.  This site has a fire grate which allows campfires unless restricted under high fire danger.","107","LL08","02 Leigh Lake",""
"2014-05-02 18:32:16","","249986","2018-07-05 05:16:24","0","0","No","Designated as walk-up only for use during the summer months.","108","PSS8","Non Zone South",""
"2014-05-02 18:32:16","","249986","2018-07-05 05:16:24","0","0","No","Designated as walk-up only for use during the summer months.","109","PSS21","Non Zone South",""
"2014-05-02 18:32:16","","249986","2018-07-05 05:16:24","0","0","No","Designated as walk-up only for use during the summer months.","110","PSS31","Non Zone South",""
"2014-05-02 18:32:16","","249986","2018-07-05 05:16:24","0","0","No","Dispersed camping in the John D. Rockefeller Parkway.  There is no quota therefore advance reservations are not necessary.  Pick up a permit for this area in person at any Grand Teton National Park backcountry permits station.","111","JDR2","John D. Rockefeller Parkway",""
"2014-05-02 18:32:16","","249986","2018-07-05 05:16:24","0","0","No","Dispersed camping in the John D. Rockefeller Parkway.  There is no quota therefore advance reservations are not necessary.  Pick up a permit for this area in person at any Grand Teton National Park backcountry permits station.","112","JDR1","John D. Rockefeller Parkway",""
"2014-05-02 18:32:16","","249986","2018-07-05 05:16:24","0","0","No","For bivies on the East Face of Grand Teton. Bear canisters may be required at ranger discretion.","113","OSC6","09 Other Climbing Sites",""
"2014-05-02 18:32:16","","249986","2018-07-05 05:16:24","0","0","No","Three small sites surrounding Bearpaw Lake, just north of Leigh Lake. Boat in is possible for these sites, but you would need to dock your boat on the north end of Leigh Lake and walk in a half mile to the campsites. Most visitors hike in the 3.7 miles from Leigh Lake Trailhead. Each site has a bear box which can accommodate one typically sized cooler. Do not bring more food than can fit in the bear box.  These sites have a fire grates, which allow campfires unless restricted under high fire danger.","114","LL05","02 Leigh Lake",""
"2014-05-02 18:32:16","","249986","2018-07-05 05:16:24","0","0","No","Designated as walk-up only for use during the summer months.","115","PSS29","Non Zone South",""
"2014-05-02 18:32:16","","249986","2018-07-05 05:16:24","0","0","No","Camping zone that traverses the slope leading out of Granite Canyon up to Mt. Hunt Divide. Hikers must take IGBC approved bear resistant food storage containers in this area. Free loan out of these containers is available at Grand Teton permit stations with a valid backcountry permit.","116","MCZ10","03 Mountain Camping Zones",""
"2014-05-02 18:32:16","","249986","2018-07-05 05:16:24","0","0","No","Designated as walk-up only for use during the summer months.","117","PSN8","Non Zone North",""
"2014-05-02 18:32:16","","249986","2018-07-05 05:16:24","0","0","No","For bivies on the west side of the Enclosure.","118","OCS7","09 Other Climbing Sites",""
"2014-05-02 18:32:16","","249986","2018-07-05 05:16:24","0","0","No","Designated as walk-up only for use during the summer months.","119","PSN14","Non Zone North",""
"2014-05-02 18:32:16","","249986","2018-07-05 05:15:58","0","0","No","This is a boat in only site. It has a bear box which can accommodate one typically sized cooler. Do not bring more food than can fit in the bear box.All Jackson Lake campsites require packing out solid human waste.  This site has a fire grate which allows campfires unless restricted under high fire danger.","120","JL04","01 Jackson Lake",""
"2014-05-02 18:32:16","","249986","2018-07-05 05:15:58","0","0","No","Designated as walk-up only for use during the summer months.","121","PSN3","Non Zone North",""
"2014-05-02 18:32:16","","249986","2018-07-05 05:15:58","0","0","No","Camping zone in the North Fork of Cascade Canyon, near (but not at) Lake Solitude. Hikers must take IGBC approved bear resistant food storage containers in this area. Free loan out of these containers is available at Grand Teton permit stations with a valid backcountry permit.","122","MCZ2","03 Mountain Camping Zones",""
"2014-05-02 18:32:16","","249986","2018-07-05 05:15:58","0","0","No","Small camping zone with close access to technical rock climbs on Disapointment Peak. This campsite area has a shared bear box for food storage.","123","GC1","08 Lwr Saddle-Moraine-Caves",""
"2014-05-02 18:32:16","","249986","2018-07-05 05:15:58","0","0","No","Designated as walk-up only for use during the summer months.","124","PSS10","Non Zone South",""
"2014-05-02 18:32:16","","249986","2018-07-05 05:15:58","0","0","No","Designated as walk-up only for use during the summer months.","125","PSS30","Non Zone South",""
"2014-05-02 18:32:16","","249986","2018-07-05 05:15:58","0","0","No","This is not a camping zone, this is Forest Service Wilderness along the Crest Trail where people can camp if they wish.","126","MCZ1","03 Mountain Camping Zones",""
"2014-05-02 18:32:16","","249986","2018-07-05 05:15:58","0","0","No","Single site on Bradley Lake along the Valley Trail. This site is ONLY for folks doing the Crest Trail and needing a site to help them to hike back to their vehicle.","127","MCZ19","03 Mountain Camping Zones",""
"2014-05-02 18:32:16","","249986","2018-07-05 05:15:58","0","0","No","Campsite for parties with horses in Berry Creek canyon.","128","NC4","05 Northern Canyons",""
"2014-05-02 18:32:16","","249986","2018-07-05 05:15:58","0","0","No","Designated as walk-up only for use during the summer months.","129","PSS18","Non Zone South",""
"2014-05-02 18:32:16","","249986","2018-07-05 05:15:58","0","0","No","This is a boat in only site. It has a bear box which can accommodate one typically sized cooler. Do not bring more food than can fit in the bear box.All Jackson Lake campsites require packing out solid human waste.  This site has a fire grate which allows campfires unless restricted under high fire danger.","130","JL02","01 Jackson Lake",""
"2014-05-02 18:32:16","","249986","2018-07-05 05:15:58","0","0","No","This is a boat in only site.  It has two bear boxes which can each accommodate one typically sized cooler.  Do not bring more food than can fit in the bear box.All Jackson Lake campsites require packing out solid human waste.  This site has a fire grate which allows campfires unless restricted under high fire danger.","131","JL03","01 Jackson Lake",""
"2014-05-02 18:32:16","","249986","2018-07-05 05:15:58","0","0","No","Sole camping zone in Open Canyon. Hikers must take IGBC approved bear resistant food storage containers in this area. Free loan out of these containers is available at Grand Teton permit stations with a valid backcountry permit.","132","MCZ13","03 Mountain Camping Zones",""
"2014-05-02 18:32:16","","249986","2018-07-05 05:15:58","0","0","No","Three campsites on Phelps Lake at the bottom of Death Canyon. This campsite has a bear box for food storage.","133","MCZ18","03 Mountain Camping Zones",""
"2014-05-02 18:32:16","","249986","2018-07-05 05:15:58","0","0","No","Canyon in the remote far north section of the park. Hikers must take IGBC approved bear resistant food storage containers in this area. Free loan out of these containers is available at Grand Teton permit stations with a valid backcountry permit.","134","NC1","05 Northern Canyons",""
"2014-05-02 18:32:16","","249986","2018-07-05 05:15:58","0","0","No","Designated as walk-up only for use during the summer months.","135","PSS1","Non Zone South",""
"2014-05-02 18:32:16","","249986","2018-07-05 05:15:58","0","0","No","Camping zone in north fork of Garnet Canyon. For access to climbs on the Grand Teton and the north side of Middle Teton. Campers must take IGBC approved bear resistant food storage containers in this area. Free loan out of these containers is available at Grand Teton permit stations with a valid backcountry permit.","136","GC5","08 Lwr Saddle-Moraine-Caves",""
"2014-05-02 18:32:16","","249986","2018-07-05 05:15:58","0","0","No","Camping zone between Middle and South Teton. Campers must take IGBC approved bear resistant food storage containers in this area. Free loan out of these containers is available at Grand Teton permit stations with a valid backcountry permit.","137","GC3","06 South Fork - Garnet Canyon",""
"2014-05-02 18:32:16","","249986","2018-07-05 05:15:58","0","0","No","Camping zone in the bottom of Granite Canyon. Hikers must take IGBC approved bear resistant food storage containers in this area. Free loan out of these containers is available at Grand Teton permit stations with a valid backcountry permit.","138","MCZ7","03 Mountain Camping Zones",""
"2014-05-02 18:32:16","","249986","2018-07-05 05:15:58","0","0","No","Designated as walk-up only for use during the summer months.","139","PSS23","Non Zone South",""
"2014-05-02 18:32:16","","249986","2018-07-05 05:15:58","0","0","No","Designated as walk-up only for use during the summer months.","140","PSS28","Non Zone South",""
"2014-05-02 18:32:16","","249986","2018-07-05 05:15:58","0","0","No","Three campsites near Marion Lake along the south end of the Crest Trail. Hikers must take IGBC approved bear resistant food storage containers in this area. Free loan out of these containers is available at Grand Teton permit stations with a valid backcountry permit.","141","MCZ12","03 Mountain Camping Zones",""
"2014-05-02 18:32:16","","249986","2018-07-05 05:15:58","0","0","No","Three small sites surrounding Bearpaw Lake, just north of Leigh Lake. Boat in is possible for these sites, but you would need to dock your boat on the north end of Leigh Lake and walk in a half mile to the campsites. Most visitors hike in the 3.7 miles from Leigh Lake Trailhead. Each site has a bear box which can accommodate one typically sized cooler. Do not bring more food than can fit in the bear box.  These sites have a fire grates, which allow campfires unless restricted under high fire danger.","142","LL07","02 Leigh Lake",""
"2014-05-02 18:32:16","","249986","2018-07-05 05:15:58","0","0","No","Camping zone at the base of Middle Teton.  Access to climbs on Middle Teton, South Teton, Nez Perce and Grand Teton. This zone has three bear boxes for shared food storage use.","143","GC2","07 Meadows-Platforms",""
"2014-05-02 18:32:16","","249986","2018-07-05 05:15:58","0","0","No","Camping zone in the north fork of Granite Canyon. Hikers must take IGBC approved bear resistant food storage containers in this area. Free loan out of these containers is available at Grand Teton permit stations with a valid backcountry permit.","144","MCZ8","03 Mountain Camping Zones",""
"2014-05-02 18:32:16","","249986","2018-07-05 05:15:58","0","0","No","Small site on extreme west side of lake. Non-motorized boat in only site. Has a bear box which can accommodate one typically sized cooler. Do not bring more food than can fit in the bear box.  This site has a fire grate which allows campfires unless restricted under high fire danger.","145","LL11","02 Leigh Lake",""
"2014-05-02 18:32:16","","249986","2018-07-05 05:15:58","0","0","No","Designated as walk-up only for use during the summer months.","146","PSN6","Non Zone North",""
"2014-05-02 18:32:16","","249986","2018-07-05 05:15:58","0","0","No","Three campsites near Holly Lake in Paintbrush Canyon. Hikers must take IGBC approved bear resistant food storage containers in this area. Free loan out of these containers is available at Grand Teton permit stations with a valid backcountry permit.","147","MCZ11","03 Mountain Camping Zones",""
"2014-05-02 18:32:16","","249986","2018-07-05 05:15:58","0","0","No","Designated as walk-up only for use during the summer months.","148","PSN4","Non Zone North",""
"2014-05-02 18:32:16","","249986","2018-07-05 05:15:58","0","0","No","Designated as walk-up only for use during the summer months.","149","PSS5","Non Zone South",""
"2014-05-02 18:32:16","","249990","2018-07-05 05:15:58","0","0","No","Pine River","150","Pine River","Boat Launch",""
"2014-05-02 18:32:16","","234735","2018-07-05 05:15:58","32.9897222222","-116.729722222","No","A visitor use permit is required to visit the Cedar Creek Falls Visitor Use Permit Area. Cedar Creek Falls is a spectacular waterfall plunging 80 feet into a large pool of water.   The trails to Cedar Creek Falls lead hikers through the beautiful backcountry hills of eastern San Diego. Black oak, cedar, and cottonwood trees provide habitat for bird watching. Water levels at the falls very substantially throughout the year. The falls typically do not run during the summer months when the pool at the base of the falls is stagnant and filled with algae.","151","Visitor Use Permit Area","Entry Point",""
"2014-05-02 18:32:16","Hawaii","234783","2018-07-05 05:15:58","20.7177777778","-156.141944444","No","Paliku Cabin, at 6,380 feet (1,945 meters), is at the east end of the wilderness valley at the base of a rain forest cliff. The cabin is reached via a strenuous 9.3-mile hike on Keoneheehee Trail (Sliding Sands Trail), 10.1 miles on Halemauu Trail, or 8.6 miles up the Kaupo Trail. Clouds and fog often roll over the top of the cliffs behind Paliku. The extra moisture makes this spot exceptionally cool and lush. There is also a campground at Paliku.","152","Paliku Cabin","Cabin","Makawao"
"2014-05-02 18:32:16","Hawaii","234783","2018-07-05 05:15:58","20.741623","-156.21805","No","Holua Cabin, the closest cabin, lies at 6,940 feet (2,115 meters) in the shrubland near Koolau Gap, 3.7 miles down the Halemauu Trail or 7.4 miles down Keoneheehee Trail (Sliding Sands Trail). Visitors staying at Holua can enjoy day hikes into the central Wilderness Area. The landscape around Holua supports a native shrubland which colonized the lava flows. There is also a campground at Holua.","153","Holua Cabin","Cabin","Makawao"
"2014-05-02 18:32:16","Hawaii","234783","2018-07-05 05:15:58","20.7063888889","-156.183888889","No","Kapalaoa Cabin, 5.5 miles down the Keoneheehee (Sliding Sands Trail) or 7.3 miles from Halemauu Trailhead, lies at the base of the cliffs on the south side of the valley. The view from Kapalaoa takes in brightly colored cinder cones, subalpine plants, and dramatic cliffs. In the spring and summer months, the endangered uau (Hawaiian dark-rumped petrel) can occasionally be heard and seen near the high cliffs. This cabin lies at 7,250 feet (2,210 meters). There is no campsite near Kapalaoa cabin.","154","Kapalaoa cabin","Cabin","Makawao"
"2014-05-02 18:32:16","Ansel Adams","233260","2018-07-05 05:15:58","0","0","No","Exit Only","155","AA08","Trailhead","Mammoth Lakes - Ansel Adams"
"2014-05-02 18:32:16","John Muir","233260","2018-07-05 05:15:58","0","0","No","Exit Only","156","JM14","Trailhead","Bishop"
"2014-05-02 18:32:16","John Muir","233260","2018-07-05 05:15:58","0","0","No","Exit Only","157","JM19","Trailhead","Bishop"
"2014-05-02 18:32:16","Sequoia NP","233260","2018-07-05 05:15:58","0","0","No","Exit Only","158","SEKI..","Trailhead","Three Rivers"
"2014-05-02 18:32:16","Golden Trout","233260","2018-07-05 05:15:58","0","0","No","Exit Only","159","SS63","Trailhead","Olancha"
"2014-05-02 18:32:16","Yosemite NP","233260","2018-07-05 05:15:58","0","0","No","Exit Only","160","YOS1","Trailhead","Yosemite"
"2014-05-02 18:32:16","John Muir / Sierra NF","233262","2018-07-05 05:16:24","0","0","No","EXIT ONLY","161","SI.","Trailhead","Fresno"
"2014-05-02 18:32:16","Sequoia NP","233262","2018-07-05 05:16:24","36.555","-118.748888889","No","EXIT ONLY","162","SEKI","Trailhead","Three Rivers"
"2014-05-02 18:32:16","East Rainy","249981","2018-07-05 05:16:24","-48.575","-92.9630555556","No","Saginaw Bay (R22) is a small campsite with a dock that measures 4x28.  This site has 1 vault toilet, 1 picnic table, 1 fire ring, 2 bear-proof food lockers that measure 52w x 36 d x 21 h each, and 2 tent pads that measure 14x14, 14x14.","163","R22","Small Campsite, 2 Tent Pads","International Falls"
"2014-05-02 18:32:16","Namakan","249981","2018-07-05 05:16:24","-48.4438888889","-92.7766666667","No","Day Marker Twenty Three (N5) is a large campsite with a dock that measures 4x20. This site has 1 vault toilet, 2 picnic tables, 1 fire ring, 4 bear-proof food lockers that measure 52w x 36 d x 21 h each, and 4- tent pads that measure 12x119, 12x12, 1110x1110, 106x96.","164","N5","Large Campsite, 4 Tent Pads","Ash River"
"2014-05-02 18:32:16","West Rainy","249981","2018-07-05 05:16:24","-48.5997222222","-93.0905555556","No","Sunrise Point (R26) is an<a href=http://www.recreation.gov/marketing.do?goto=/permitgeneralrules_accessiblesites_72783.html target=_blank>accessible</a>, small campsite with a dock that measures 4x24.  This site has 1 vault toilet with a privy screen, 1 picnic table, 1 fire ring, 2 bear-proof food lockers that measure 52w x 36 d x 21 h each, and 2 tent pads that measure 14x14, 14x14.","165","R26","Accessible Sites","International Falls"
"2014-05-02 18:32:16","John Muir","233260","2018-07-05 05:15:58","0","0","No","The classic Mt.Whitney trail.","166","JM35","Entry Point","Lone Pine - John Muir"
"2014-05-02 18:32:16","Ansel Adams","233260","2018-07-05 05:15:58","0","0","No","Exit Only","167","AA04","Trailhead","June Lake"
"2014-05-02 18:32:16","Owens River Headwaters","233260","2018-07-05 05:15:58","0","0","No","Exit Only","168","AA-06-OH","Trailhead","June Lake - Owens River Headwaters"
"2014-05-02 18:32:16","Ansel Adams","233260","2018-07-05 05:15:58","0","0","No","Exit Only","169","AA07","Trailhead","Mammoth Lakes - Ansel Adams"
"2014-05-02 18:32:16","Ansel Adams","233260","2018-07-05 05:15:58","0","0","No","Exit Only","170","AA11","Trailhead","Mammoth Lakes - Ansel Adams"
"2014-05-02 18:32:16","Ansel Adams","233260","2018-07-05 05:15:58","0","0","No","Exit Only","171","AA12","Trailhead","Mammoth Lakes - Ansel Adams"
"2014-05-02 18:32:16","Ansel Adams","233260","2018-07-05 05:15:58","0","0","No","Exit Only","172","AA13","Trailhead","Mammoth Lakes - Ansel Adams"
"2014-05-02 18:32:16","Ansel Adams","233260","2018-07-05 05:15:58","0","0","No","Exit Only","173","AA14","Trailhead","Mammoth Lakes - Ansel Adams"
"2014-05-02 18:32:16","Ansel Adams","233260","2018-07-05 05:15:58","0","0","No","Exit Only","174","AA15","Trailhead","Mammoth Lakes - Ansel Adams"
"2014-05-02 18:32:16","Ansel Adams","233260","2018-07-05 05:15:58","0","0","No","Exit Only","175","AA16","Trailhead","Mammoth Lakes - Ansel Adams"
"2014-05-02 18:32:16","Golden Trout","233260","2018-07-05 05:15:58","0","0","No","Exit Only","176","GT66","Trailhead","Lone Pine - Golden Trout"
"2014-05-02 18:32:16","Hoover/ Inyo","233260","2018-07-05 05:15:58","0","0","No","Exit Only","177","HH11","Trailhead","Lee Vining - Hoover/Inyo"
"2014-05-02 18:32:16","Hoover/ Inyo","233260","2018-07-05 05:15:58","0","0","No","Exit Only","178","HH12","Trailhead","Lee Vining - Hoover/Inyo"
"2014-05-02 18:32:16","Hoover/ Inyo","233260","2018-07-05 05:15:58","0","0","No","Exit Only","179","HH13","Trailhead","Lee Vining - Hoover/Inyo"
"2014-05-02 18:32:16","Hoover/ Inyo","233260","2018-07-05 05:15:58","0","0","No","Exit Only","180","HH14","Trailhead","Lee Vining - Hoover/Inyo"
"2014-05-02 18:32:16","John Muir","233260","2018-07-05 05:15:58","0","0","No","Exit Only","181","JM30","Trailhead","Independence"
"2014-05-02 18:32:16","John Muir","233260","2018-07-05 05:15:58","0","0","No","Exit Only","182","JM00","Trailhead","Mammoth Lakes - John Muir"
"2014-05-02 18:32:16","John Muir","233260","2018-07-05 05:15:58","0","0","No","Exit Only","183","JM02","Trailhead","Mammoth Lakes - John Muir"
"2014-05-02 18:32:16","John Muir","233260","2018-07-05 05:15:58","0","0","No","Exit Only","184","JM03","Trailhead","Mammoth Lakes - John Muir"
"2014-05-02 18:32:16","John Muir","233260","2018-07-05 05:15:58","0","0","No","Exit Only","185","JM05","Trailhead","Crowley Lake"
"2014-05-02 18:32:16","John Muir","233260","2018-07-05 05:15:58","0","0","No","Exit Only","186","JM07","Trailhead","Toms Place"
"2014-05-02 18:32:16","John Muir","233260","2018-07-05 05:15:58","0","0","No","Exit Only","187","JM09","Trailhead","Toms Place"
"2014-05-02 18:32:16","John Muir","233260","2018-07-05 05:15:58","0","0","No","Exit Only","188","JM10","Trailhead","Bishop"
"2014-05-02 18:32:16","John Muir","233260","2018-07-05 05:15:58","0","0","No","Exit Only","189","JM13","Trailhead","Bishop"
"2014-05-02 18:32:16","John Muir","233260","2018-07-05 05:15:58","0","0","No","Exit Only","190","JM15","Trailhead","Bishop"
"2014-05-02 18:32:16","John Muir","233260","2018-07-05 05:15:58","0","0","No","Exit Only","191","JM16","Trailhead","Bishop"
"2014-05-02 18:32:16","John Muir","233260","2018-07-05 05:15:58","0","0","No","Exit Only","192","JM17","Trailhead","Bishop"
"2014-05-02 18:32:16","John Muir","233260","2018-07-05 05:15:58","0","0","No","Exit Only","193","JM18","Trailhead","Bishop"
"2014-05-02 18:32:16","John Muir","233260","2018-07-05 05:15:58","0","0","No","Exit Only","194","JM20","Trailhead","Bishop"
"2014-05-02 18:32:16","John Muir","233260","2018-07-05 05:16:24","0","0","No","Exit Only","195","JM21","Trailhead","Bishop"
"2014-05-02 18:32:16","John Muir","233260","2018-07-05 05:16:24","0","0","No","Exit Only","196","JM22","Trailhead","Bishop"
"2014-05-02 18:32:16","John Muir","233260","2018-07-05 05:16:24","0","0","No","Exit Only","197","JM24","Trailhead","Big Pine"
"2014-05-02 18:32:16","John Muir","233260","2018-07-05 05:16:24","0","0","No","Exit Only","198","JM25","Trailhead","Big Pine"
"2014-05-02 18:32:16","John Muir","233260","2018-07-05 05:16:24","0","0","No","Exit Only","199","JM27","Trailhead","Independence"
"2014-05-02 18:32:16","John Muir","233260","2018-07-05 05:16:24","0","0","No","Exit Only","200","JM28","Trailhead","Independence"
"2014-05-02 18:32:16","John Muir","233260","2018-07-05 05:16:24","0","0","No","Exit Only","201","JM31","Trailhead","Independence"
"2014-05-02 18:32:16","John Muir","233260","2018-07-05 05:16:24","0","0","No","Exit Only","202","JM32","Trailhead","Independence"
"2014-05-02 18:32:16","John Muir","233260","2018-07-05 05:16:24","0","0","No","Exit Only","203","JM33","Trailhead","Independence"
"2014-05-02 18:32:16","John Muir","233260","2018-07-05 05:16:24","0","0","No","Exit Only","204","JM34","Trailhead","Lone Pine - John Muir"
"2014-05-02 18:32:16","John Muir","233260","2018-07-05 05:16:24","0","0","No","Exit Only","205","JM37","Trailhead","Lone Pine - John Muir"
"2014-05-02 18:32:16","John Muir","233260","2018-07-05 05:16:24","0","0","No","Exit Only","206","JM38","Trailhead","Lone Pine - John Muir"
"2014-05-02 18:32:16","John Muir","233260","2018-07-05 05:16:24","0","0","No","Exit Only","207","JM39","Trailhead","Lone Pine - John Muir"
"2014-05-02 18:32:16","Sequoia NP","233260","2018-07-05 05:16:24","0","0","No","Exit Only","208","SEKI","Trailhead","Three Rivers"
"2014-05-02 18:32:16","Sequoia NP","233260","2018-07-05 05:16:24","0","0","No","Exit Only","209","SEKI.","Trailhead","Three Rivers"
"2014-05-02 18:32:16","John Muir/Sierra NF","233260","2018-07-05 05:16:24","0","0","No","Exit Only","210","SI","Trailhead","Fresno"
"2014-05-02 18:32:16","John Muir/Sierra NF","233260","2018-07-05 05:16:24","0","0","No","Exit Only","211","SI.","Trailhead","Fresno"
"2014-05-02 18:32:16","Sequoia NP","233260","2018-07-05 05:16:24","0","0","No","Exit Only","212","SQ","Trailhead","Kernville"
"2014-05-02 18:32:16","Golden Trout","233260","2018-07-05 05:16:24","0","0","No","Exit Only","213","SS64","Trailhead","Olancha"
"2014-05-02 18:32:16","Golden Trout","233260","2018-07-05 05:16:24","0","0","No","Exit Only","214","SS65","Trailhead","Pearsonville"
"2014-05-02 18:32:16","Yosemite NP","233260","2018-07-05 05:16:24","0","0","No","Exit Only","215","YOS2","Trailhead","Yosemite"
"2014-05-02 18:32:16","Yosemite NP","233260","2018-07-05 05:16:24","0","0","No","Exit Only","216","YOS4","Trailhead","Yosemite"
"2014-05-02 18:32:16","Ansel Adams","233260","2018-07-05 05:16:24","0","0","No","Exit Only","217","AA03","Trailhead","Lee Vining - Ansel Adams"
"2014-05-02 18:32:16","","249986","2018-07-05 05:15:58","0","0","No","Camping zone that encompasses the South and Middle Forks of Granite Camping.  This is the closest camping zone to the Tram. Hikers must take IGBC approved bear resistant food storage containers in this area. Free loan out of these containers is available at Grand Teton permit stations with a valid backcountry permit.","218","MCZ9","03 Mountain Camping Zones",""
"2014-05-02 18:32:16","","249986","2018-07-05 05:15:58","0","0","No","Designated as walk-up only for use during the summer months.","219","PSN13","Non Zone North",""
"2014-05-02 18:32:16","","249986","2018-07-05 05:15:58","0","0","No","Camping zone in the South Fork of Cascade Canyon. Hikers must take IGBC approved bear resistant food storage containers in this area. Free loan out of these containers is available at Grand Teton permit stations with a valid backcountry permit.","220","MCZ3","03 Mountain Camping Zones",""
"2014-05-02 18:32:16","","249986","2018-07-05 05:15:58","0","0","No","Designated as walk-up only for use during the summer months.","221","PSN7","Non Zone North",""
"2014-05-02 18:32:16","","249986","2018-07-05 05:15:58","0","0","No","Campsite for groups with horses in South Fork Cascade Camping Zone. These group sites have bear boxes for food storage.","222","MGS9","04 Mountain Group Sites",""
"2014-05-02 18:32:16","","249986","2018-07-05 05:15:58","0","0","No","Group Site in center of North Fork Cascade Camping Zone. These group sites have bear boxes for food storage.","223","MGS7","04 Mountain Group Sites",""
"2014-05-02 18:32:16","","249986","2018-07-05 05:15:58","0","0","No","Bivy to access climbs on west side of Mt. Owen. Bear canisters may be required at ranger discretion.","224","OCS10","09 Other Climbing Sites",""
"2014-05-02 18:32:16","","249986","2018-07-05 05:15:58","0","0","No","MS Traverse","225","OCS12","09 Other Climbing Sites",""
"2014-05-02 18:32:16","","249986","2018-07-05 05:15:58","0","0","No","Designated as walk-up only for use during the summer months.","226","PSS13","Non Zone South",""
"2014-05-02 18:32:16","","249986","2018-07-05 05:15:58","0","0","No","Camping zone in the lower portion of Death Canyon. Hikers must take IGBC approved bear resistant food storage containers in this area. Free loan out of these containers is available at Grand Teton permit stations with a valid backcountry permit.","227","MCZ4","03 Mountain Camping Zones",""
"2014-05-02 18:32:16","","249986","2018-07-05 05:15:58","0","0","No","Single site between Lower Paintbrush zone and Holly Lake. Hikers must take IGBC approved bear resistant food storage containers in this area. Free loan out of these containers is available at Grand Teton permit stations with a valid backcountry permit.","228","MCZ14","03 Mountain Camping Zones",""
"2014-05-02 18:32:16","","249986","2018-07-05 05:15:58","0","0","No","Small campsite for access to climbing the CMC Route on Mt. Moran. Campers must take IGBC approved bear resistant food storage containers in this area. Free loan out of these containers is available at Grand Teton permit stations with a valid backcountry permit.","229","OSC8","09 Other Climbing Sites",""
"2014-05-02 18:32:16","","249986","2018-07-05 05:15:58","0","0","No","Bivy site at the base of the Skillet Glacier on Mt. Moran. Campers must take IGBC approved bear resistant food storage containers in this area. Free loan out of these containers is available at Grand Teton permit stations with a valid backcountry permit.","230","OCS11","09 Other Climbing Sites",""
"2014-05-02 18:32:16","","249986","2018-07-05 05:15:58","0","0","No","Designated as walk-up only for use during the summer months.","231","PSN12","Non Zone North",""
"2014-05-02 18:32:16","","249986","2018-07-05 05:15:58","0","0","No","This site can be accessed via a 4 mile hike from Colter Bay, or by boat. It has two bear boxes which can each accommodate one typically sized cooler. Do not bring more food than can fit in the bear boxes. All Jackson Lake campsites require packing out solid human waste.  This site has a fire grate which allows campfires unless restricted under high fire danger.","232","JL13","01 Jackson Lake",""
"2014-05-02 18:32:16","","249986","2018-07-05 05:15:58","0","0","No","For bivies on the North Face of Grand Teton. Bear canisters may be required at ranger discretion.","233","OCS5","09 Other Climbing Sites",""
"2014-05-02 18:32:16","","249986","2018-07-05 05:15:58","0","0","No","Designated as walk-up only for use during the summer months.","234","PSN11","Non Zone North",""
"2014-05-02 18:32:16","","249986","2018-07-05 05:15:58","0","0","No","Designated as walk-up only for use during the summer months.","235","PSS19","Non Zone South",""
"2014-05-02 18:32:16","","249986","2018-07-05 05:15:58","0","0","No","Group site a quarter mile below Holly Lake. These group sites have bear boxes for food storage.","236","MGS4","04 Mountain Group Sites",""
"2014-05-02 18:32:16","","249986","2018-07-05 05:15:58","0","0","No","Designated as walk-up only for use during the summer months.","237","PSS12","Non Zone South",""
"2014-05-02 18:32:16","","249986","2018-07-05 05:15:58","0","0","No","Designated as walk-up only for use during the summer months.","238","PSS17","Non Zone South",""
"2014-05-02 18:32:16","","249986","2018-07-05 05:15:58","0","0","No","Designated as walk-up only for use during the summer months.","239","PSS24","Non Zone South",""
"2014-05-02 18:32:16","","249986","2018-07-05 05:15:58","0","0","No","Camping zone in the lower portion of Paintbrush Canyon. Hikers must take IGBC approved bear resistant food storage containers in this area. Free loan out of these containers is available at Grand Teton permit stations with a valid backcountry permit.","240","MCZ15","03 Mountain Camping Zones",""
"2014-05-02 18:32:16","","249986","2018-07-05 05:15:58","0","0","No","Group site in center of Death Canyon Shelf Camping Zone. These group sites have bear boxes for food storage.","241","MGS2","04 Mountain Group Sites",""
"2014-05-02 18:32:16","","249986","2018-07-05 05:15:58","0","0","No","This site can be accessed via a half mile hike from the Teton Park Road, or by boat. It has a bear box which can accommodate one typically sized cooler. Do not bring more food than can fit in the bear box. All Jackson Lake campsites require packing out solid human waste.   This site has a fire grate which allows campfires unless restricted under high fire danger.","242","JL11","01 Jackson Lake",""
"2014-05-02 18:32:16","","249986","2018-07-05 05:15:58","0","0","No","Three campsites near Surprise Lake in the Amphitheater Lake/Disappointment Peak area. This campsite has a bear box for food storage.","243","MCZ17","03 Mountain Camping Zones",""
"2014-05-02 18:32:16","","249986","2018-07-05 05:15:58","0","0","No","Designated as walk-up only for use during the summer months.","244","PSS14","Non Zone South",""
"2014-05-02 18:32:16","","249986","2018-07-05 05:15:58","0","0","No","Bivy for access to Mt. Owen. Bear canisters may be required at ranger discretion.","245","OCS9","09 Other Climbing Sites",""
"2014-05-02 18:32:16","","249986","2018-07-05 05:15:58","0","0","No","Campsite at top of switchbacks on Teewinot, for access to climb east side of Teewinot. Campers must take IGBC approved bear resistant food storage containers in this area. Free loan out of these containers is available at Grand Teton permit stations with a valid backcountry permit.","246","OCS4","09 Other Climbing Sites",""
"2014-05-02 18:32:16","","249986","2018-07-05 05:15:58","0","0","No","Designated as walk-up only for use during the summer months.","247","PSS16","Non Zone South",""
"2014-05-02 18:32:16","","249986","2018-07-05 05:15:58","0","0","No","Designated as walk-up only for use during the summer months.","248","PSN10","Non Zone North",""
"2014-05-02 18:32:16","","249986","2018-07-05 05:15:58","0","0","No","This is not a camping zone, this is Forest Service Wilderness along the Crest Trail where people can camp if they wish.","249","MGS11","04 Mountain Group Sites",""
"2014-05-02 18:32:16","","249986","2018-07-05 05:15:58","0","0","No","Group site in the center of Granite Canyon Camping zone. These group sites have bear boxes for food storage.","250","MGS5","04 Mountain Group Sites",""
"2014-05-02 18:32:16","","249986","2018-07-05 05:15:58","0","0","No","Football Field","251","OCS15","09 Other Climbing Sites",""
"2014-05-02 18:32:16","","249986","2018-07-05 05:15:58","0","0","No","For information regarding the walk-in availability for this site, please call the park at: (307)739-3309. This site is currently still available for advanced reservations in May, September & October. Small site on west side of Leigh Lake.  Hiking trail accessible. Non-motorized boat accessible, or a mile 1/2 hike in. Has a bear box which can accommodate one typically sized cooler. Do not bring more food than can fit in the bear box.  This site has a fire grate which allows campfires unless restricted under high fire danger.","252","LL09","02 Leigh Lake",""
"2014-05-02 18:32:16","","249986","2018-07-05 05:15:58","0","0","No","Designated as walk-up only for use during the summer months.","253","PSS7","Non Zone South",""
"2014-05-02 18:32:16","","249986","2018-07-05 05:15:58","0","0","No","Designated as walk-up only for use during the summer months.","254","PSS20","Non Zone South",""
"2014-05-02 18:32:16","","249986","2018-07-05 05:15:58","0","0","No","For information regarding the walk-in availability for this site, please call the park at: (307)739-3309. This site is currently still available for advanced reservations in May, September & October. .Small site on south west point of the lake. Non-motorized boat accessible, or two mile hike in. Has a bear box which can accommodate one typically sized cooler. Do not bring more food than can fit in the bear box.  This site has a fire grate which allows campfires unless restricted under high fire danger.","255","LL10","02 Leigh Lake",""
"2014-05-02 18:32:16","","249986","2018-07-05 05:15:58","0","0","No","One site  at the far end of the Leigh Lake hiking trail, on Trapper Lake. Boat in is possible for this site, but you would need to dock your boat on the north end of Leigh Lake and walk  three quarters of a mile to the campsite. Most visitors hike in the 4 miles from Leigh Lake Trailhead. Has a bear box which can accommodate one typically sized cooler.  Do not bring more food than can fit in the bear box.  This site has a fire grate which allows campfires unless restricted under high fire danger.","256","LL12","02 Leigh Lake",""
"2014-05-02 18:32:16","","249986","2018-07-05 05:15:58","0","0","No","This is not a camping zone, this is Forest Service Wilderness between the Teton Park  boundary just north of Marion Lake, and the Teton Park boundary just south of the Death Canyon Shelf where people can camp if they wish. Water is scarce in this area.","257","MCZ6","03 Mountain Camping Zones",""
"2014-05-02 18:32:16","","249986","2018-07-05 05:15:58","0","0","No","Campsite for groups with horses in Death Canyon Camping Zone. These group sites have bear boxes for food storage.","258","MGS3","04 Mountain Group Sites",""
"2014-05-02 18:32:16","","249986","2018-07-05 05:15:58","0","0","No","Bivy used for Cathedral Traverse. Bear canisters may be required at ranger discretion.","259","OSC1","09 Other Climbing Sites",""
"2014-05-02 18:32:16","","249986","2018-07-05 05:15:58","0","0","No","Two small sites on east side of Leigh Lake. Large sandy beach with shallow water for swimming.Non-motorized boat accessible, or two mile hike in. Has a bear box which can accommodate one typically sized cooler. Do not bring more food than can fit in the bear box. This site has a fire grate which allows campfires unless restricted under high fire danger.","260","LL02","02 Leigh Lake",""
"2014-05-02 18:32:16","","249986","2018-07-05 05:15:58","0","0","No","Camping zone on saddle between Grand Teton and Middle Teton.  Highest elevation camping area for climbs on the Grand Teton. This zone has a bear box for shared food storage.  It requires solid human waste be packed out.  Waste bags for this purpose may be obtained at permits offices.","261","GC4","08 Lwr Saddle-Moraine-Caves",""
"2014-05-02 18:32:16","","249986","2018-07-05 05:15:58","0","0","No","Above Teton Glacier, between Mt. Owen and Grand Teton. Used for bivying on Grand or Cathedral Traverse. Bear canisters may be required at ranger discretion.","262","OCS2","09 Other Climbing Sites",""
"2014-05-02 18:32:16","","249986","2018-07-05 05:15:58","0","0","No","Designated as walk-up only for use during the summer months.","263","PSS9","Non Zone South",""
"2014-05-02 18:32:16","","249986","2018-07-05 05:15:58","0","0","No","Designated as walk-up only for use during the summer months.","264","PSS22","Non Zone South",""
"2014-05-02 18:32:16","","249986","2018-07-05 05:15:58","0","0","No","Camping zone in the upper portion of Paintbrush Canyon. Hikers must take IGBC approved bear resistant food storage containers in this area. Free loan out of these containers is available at Grand Teton permit stations with a valid backcountry permit.","265","MCZ16","03 Mountain Camping Zones",""
"2014-05-02 18:32:16","","249986","2018-07-05 05:15:58","0","0","No","Group site in lower section of Death Canyon Camping Zone. These group sites have bear boxes for food storage.","266","MGS1","04 Mountain Group Sites",""
"2014-05-02 18:32:16","","249986","2018-07-05 05:15:58","0","0","No","Designated as walk-up only for use during the summer months.","267","PSN1","Non Zone North",""
"2014-05-02 18:32:16","","249986","2018-07-05 05:15:58","0","0","No","Designated as walk-up only for use during the summer months.","268","PSS2","Non Zone South",""
"2014-05-02 18:32:16","","249986","2018-07-05 05:15:58","0","0","No","Designated as walk-up only for use during the summer months.","269","PSS25","Non Zone South",""
"2014-05-02 18:32:16","","249986","2018-07-05 05:15:58","0","0","No","This site can be accessed by either boat across Jackson Lake, or an 8 mile hike from Glade Creek Trailhead which may include a river crossing. It has a bear box which can accommodate one typically sized cooler.  Do not bring more food than can fit in the bear box. All Jackson Lake campsites require packing out solid human waste.  This site has a fire grate which allows campfires unless restricted under high fire danger.","270","JL01","01 Jackson Lake",""
"2014-05-02 18:32:16","","249986","2018-07-05 05:15:58","0","0","No","Canyon in the remote far north section of the park. Hikers must take IGBC approved bear resistant food storage containers in this area. Free loan out of these containers is available at Grand Teton permit stations with a valid backcountry permit.","271","NC2","05 Northern Canyons",""
"2014-05-02 18:32:16","","249986","2018-07-05 05:15:58","0","0","No","Designated as walk-up only for use during the summer months.","272","PSN5","Non Zone North",""
"2014-05-02 18:32:16","","249986","2018-07-05 05:15:58","0","0","No","Campsite for groups with horses in Upper Granite Camping Zone. These group sites have bear boxes for food storage.","273","MGS10","04 Mountain Group Sites",""
"2014-05-02 18:32:16","","249986","2018-07-05 05:15:58","0","0","No","Koven","274","OCS16","09 Other Climbing Sites",""
"2014-05-02 18:32:16","","249986","2018-07-05 05:15:58","0","0","No","Canyon/Basin in the remote far north section of the park. Hikers must take IGBC approved bear resistant food storage containers in this area. Free loan out of these containers is available at Grand Teton permit stations with a valid backcountry permit.","275","NC3","05 Northern Canyons",""
"2014-05-02 18:32:16","","249986","2018-07-05 05:15:58","0","0","No","Non-motorized boat in only site. Has a bear box which can accommodate one typically sized cooler. Do not bring more food than can fit in the bear box.","276","LL04","02 Leigh Lake",""
"2014-05-02 18:32:16","Mt. Jefferson Wilderness","234769","2018-07-05 05:16:24","44.6594444444","-121.905555556","No","Pamelia Limited Entry Area is within the Mt. Jefferson Wilderness.","277","Pamelia Area","Permit Area",""
"2014-05-02 18:32:16","Mt. Jefferson Wilderness","234769","2018-07-05 05:16:24","44.6594444444","-121.905555556","No","Large group permits are for one of three zones within the Pamelia Limited Entry Area.  Overnight visitors must camp in their assigned zone.","278","Pamelia Lake","Zone",""
"2014-05-02 18:32:16","","249991","2018-07-05 05:16:24","0","0","No","The Brooks Camp Campground in Katmai National Park provides a quintessential Alaskan wildlife experience. When campers step off their floatplane or boat, they enter one of the largest concentrated habitats of brown bears on earth. July and September are the prime bear viewing months and close encounters are common.","279","Brooks Camp","Campground",""
"2014-05-02 18:32:16","","249991","2018-07-05 05:16:24","58.6695583333","-155.430916667","No","Fures Cabin is a key stopover for those attempting the Savonoski Loop paddle trip, or as a beautiful destination in its own right. It is not an alternate for a Brooks Camp Campground and requires a full day of paddling to reach, or the use of a boat or plane.","280","Fures Cabin","Cabin",""
"2014-05-02 18:32:16","Admiralty Island National Monument","233328","2018-07-05 05:16:24","57.8988888889","-134.280555556","No","Bear viewing at Pack Creek dates back to the 1930s when the area became popular with visitors from Juneau. In 1934 the Territorial Game Commission prohibited bear hunting within 20 square miles around Pack Creek. One year later, the Civilian Conservation Corps built a trail and a small tree stand overlooking Pack Creek (this stand was replaced with the current tower in 1990).In the mid-1950s a gentleman by the name of Stan Price floated his wannigan float house into the Pack Creek estuary. Over the next several decades his year round presence was a significant factor in conditioning the bears to humans. By the time of his passing in 1989 the bears were comfortable with daily visitors from Juneau.The Alaska Board of Game expanded the hunting closure in 1984 to include Swan Cove, Swan Island and Windfall Harbor -- a total of about 95 square miles.","281","Pack Creek Bear Viewing","Entry Point",""
"2014-05-02 18:32:16","Price Field Office","233393","2018-07-05 05:16:24","39.8394444444","-109.914166667","No","Desolation-Gray Canyons of the Green River","282","Desolation-Gray Canyons of the Green River","Entry Point","Price, Utah "
"2014-05-02 18:32:16","","234642","2018-07-05 05:16:24","0","0","No","9:45AM - 11:45AM","283","9:45AM - 11:45AM","Entry Point",""
"2014-05-02 18:32:16","","234642","2018-07-05 05:16:24","0","0","No","7:30AM - 9:30AM","284","7:30AM - 9:30AM","Entry Point",""
"2014-05-02 18:32:16","","234642","2018-07-05 05:16:24","0","0","No","2:30PM - 4:30PM","285","2:30PM - 4:30PM","Entry Point",""
"2014-05-02 18:32:16","","234642","2018-07-05 05:16:24","0","0","No","4:45PM - 6:45PM","286","4:45PM - 6:45PM","Entry Point",""
"2014-05-02 18:32:16","","234642","2018-07-05 05:16:24","0","0","No","12:15PM - 2:15PM","287","12:15PM - 2:15PM","Entry Point",""
"2014-05-02 18:32:16","Mt. Jefferson Wilderness","234769","2018-07-05 05:16:24","44.6594444444","-121.905555556","No","Large group permits are for one of three zones within the Pamelia Limited Entry Area.  Overnight visitors must camp in their assigned zone.","288","Hanks and Hunts Lake","Zone",""
"2014-05-02 18:32:16","Mt. Jefferson Wilderness","234769","2018-07-05 05:16:24","44.6594444444","-121.905555556","No","Large group permits are for one of three zones within the Pamelia Limited Entry Area.  Overnight visitors must camp in their assigned zone..","289","Coyote and Shale Lakes","Zone",""
"2014-05-02 18:32:16","Desolation Wilderness","233261","2018-07-05 05:16:24","0","0","No","This zone is in the center of the Rockbound Valley with the Rubicon River paralleling the Rubicon Trail.  Camper Flat is a multi-destination hub.  Reservable Quota - 10","290","Camper Flat","Entry Point",""
"2014-05-02 18:32:16","Desolation Wilderness","233261","2018-07-05 05:16:24","0","0","No","This zone includes Lake Genevieve, Crag Lake and Hidden Lake.  Access is from the Meeks Bay Trailhead.   Reservable Quota - 10","291","Genevieve","Entry Point",""
"2014-05-02 18:32:16","Desolation Wilderness","233261","2018-07-05 05:16:24","0","0","No","This  east side zone is an area of peaks and rugged terrain.   Grouse Lakes are accessed via a primitive trail heading south off the Tahoe-Yosemite Trail near the south shore of Rubicon Lake.    Reservable Quota - 2","292","Grouse Lakes","Entry Point",""
"2014-05-02 18:32:16","Desolation Wilderness","233261","2018-07-05 05:16:24","0","0","No","This zone includes Phipps Lake, Phipps Peak and  Phipps Pass. The Pacific Crest Trail and the Tahoe-Yosemite Trail navigate this zone.  Reservable Quota - 2","293","Phipps","Entry Point",""
"2014-05-02 18:32:16","Desolation Wilderness","233261","2018-07-05 05:16:24","0","0","No","This Zone surrounds Rockbound Lake and is accessible from the Loon Lake Trailhead. Reservable Quota - 13.","294","Rockbound Lake","Entry Point",""
"2014-05-02 18:32:16","Desolation Wilderness","233261","2018-07-05 05:16:24","0","0","No","This  large off trail zone at the northwest corner of the Wilderness consists of many unnamed ponds. Access from Loon Lake or Van Vleck Trailheads.                     Reservable Quota - 4","295","Brown Mountain","Entry Point",""
"2014-05-02 18:32:16","Desolation Wilderness","233261","2018-07-05 05:16:24","0","0","No","This zone features the primitive McConnell Lake Trail providing access to  Leland Lakes, McConnell Lake,  Horseshoe Lake, and 4 Qs Lakes, Trailhead access is thru the Rockbound Trailhead at Wrights Lake.   Reservable Quota - 10","296","Lelands","Entry Point",""
"2014-05-02 18:32:16","Desolation Wilderness","233261","2018-07-05 05:16:24","0","0","No","This zone surrounds Lake Schmidell and is accessible from the Rockbound Trailhead.  Reservable Quota - 5","297","Schmidell","Entry Point",""
"2014-05-02 18:32:16","Desolation Wilderness","233261","2018-07-05 05:16:24","0","0","No","This zone  includes Lyons Lake and Sylvia Lake.  Access is from the Lyons Creek Trailhead  via the Lyons Creek Trail, or on the Bloodsucker Trail starting from the Wrights Lake Horse Camp.    Reservable Quota - 8","298","Lyons","Entry Point",""
"2014-05-02 18:32:16","Desolation Wilderness","233261","2018-07-05 05:16:24","0","0","No","This zone includes Horsetail Falls, Avalanche Lake, Pitt Lake, Ropi Lake, Osma Lake, Toem Lake, and Gefo Lake, This is an off -trail area that is accessible via  the Ralston or Echo Lakes Trailheads and primitive routes.   Reservable Quota - 10","299","Avalanche","Entry Point",""
"2014-05-02 18:32:16","Desolation Wilderness","233261","2018-07-05 05:16:24","0","0","No","This zone includes Shadow Lake, Stony Ridge Lake and Rubicon Lake.  It is accessible from Meeks Bay Trail head.  A section of the Tahoe-Yosemite Trail passes thru.                                                          Reservable Quota - 10","300","Stony Ridge","Entry Point",""
"2014-05-02 18:32:16","Desolation Wilderness","233261","2018-07-05 05:16:24","0","0","No","The zone includes Triangle Lake and Lost Lake and is accessible from the Echo Lakes Trailhead.   A primitive route enters this zone from the Glenn Alpine Trailhead. Reservable Quota - 2","301","Triangle","Entry Point",""
"2014-05-02 18:32:16","Desolation Wilderness","233261","2018-07-05 05:16:24","0","0","No","This is a Trailhead.","302","Buck Island","Trailhead",""
"2014-05-02 18:32:16","Desolation Wilderness","233261","2018-07-05 05:16:24","0","0","No","This is a Trailhead.","303","Bayview","Trailhead",""
"2014-05-02 18:32:16","Desolation Wilderness","233261","2018-07-05 05:16:24","0","0","No","This is a Trailhead.","304","Pyramid Creek (Twin Bridges)","Trailhead",""
"2014-05-02 18:32:16","Desolation Wilderness","233261","2018-07-05 05:16:24","0","0","No","This zone includes Lake of the Woods, a Special Management area with designated campsites and multiple restoration sites, and Frata Lake.  Access is thru  the Echo Lakes or Ralston Trailheads.  Reservable Quota - 10","305","Lake of the Woods","Entry Point",""
"2014-05-02 18:32:16","Desolation Wilderness","233261","2018-07-05 05:16:24","0","0","No","This is a Trailhead.","306","Lyons Creek","Trailhead",""
"2014-05-02 18:32:16","Desolation Wilderness","233261","2018-07-05 05:16:24","0","0","No","Highland Lake and Lake Zitella are in this off trail zone.  Access is via a primitive route off the McConnell LakeTrail near Horseshoe Lake.     Reservable Quota - 4","307","Highland","Entry Point",""
"2014-05-02 18:32:16","Desolation Wilderness","233261","2018-07-05 05:16:24","0","0","No","This western slope zone is accessible from the Van Vleck Trailhead via the Red Peak Trail,  or from the Barrett Lake 4WD Trail terminous at Barrett Lake..  It includes   Lake #3 and Lake #5.          Reservable Quota - 4","308","Lakes #3 and #5","Entry Point",""
"2014-05-02 18:32:16","Desolation Wilderness","233261","2018-07-05 05:16:24","0","0","No","This is a Trailhead.","309","Loon Lake","Trailhead",""
"2014-05-02 18:32:16","Desolation Wilderness","233261","2018-07-05 05:16:24","0","0","No","This is a Trailhead.","310","Eagle Falls","Trailhead",""
"2014-05-02 18:32:16","Desolation Wilderness","233261","2018-07-05 05:16:24","0","0","No","This  large area at the north end of the Wilderness is accessible from the Meeks Bay Trailhead or Richardson Lake.  A section of the Pacific Crest Trail passes thru. Reservable Quota - 5","311","General Creek","Entry Point",""
"2014-05-02 18:32:16","Desolation Wilderness","233261","2018-07-05 05:16:24","0","0","No","This zone includes Rubicon Reservior, Fox Lake, and a section of the  Rubicon River.    It is accessible from Loon Lake Trailhead.   Reservable Quota - 12","312","Rubicon","Entry Point",""
"2014-05-02 18:32:16","Desolation Wilderness","233261","2018-07-05 05:16:24","0","0","No","This is a Trailhead.","313","Glen Alpine","Trailhead",""
"2014-05-02 18:32:16","Desolation Wilderness","233261","2018-07-05 05:16:24","0","0","No","This is a Trailhead.","314","Van Vleck","Trailhead",""
"2014-05-02 18:32:16","Desolation Wilderness","233261","2018-07-05 05:16:24","0","0","No","This is a Trailhead.","315","Rockbound","Trailhead",""
"2014-05-02 18:32:16","Desolation Wilderness","233261","2018-07-05 05:16:24","0","0","No","This zone surrounds Ralston Peak and includes Cup Lake and Saucer Lake.  Access is from the Ralston Trailhead.    Reservable Quota - 2","316","Ralston","Entry Point",""
"2014-05-02 18:32:16","Desolation Wilderness","233261","2018-07-05 05:16:24","0","0","No","This zone includes Forni Lake, Tells, Silver and McConnell Peaks, and  sections of the Red Peak and Highland Trails.   Access is thru the Van Vleck Trailhead.              Reservable Quota - 6","317","Tells","Entry Point",""
"2014-05-02 18:32:16","Desolation Wilderness","233261","2018-07-05 05:16:24","0","0","No","This is a Trailhead.","318","Echo","Trailhead",""
"2014-05-02 18:32:16","Desolation Wilderness","233261","2018-07-05 05:16:24","0","0","No","This is a Trailhead.","319","General Creek","Trailhead",""
"2014-05-02 18:32:16","Desolation Wilderness","233261","2018-07-05 05:16:24","0","0","No","This is a Trailhead.","320","Ralston","Trailhead",""
"2014-05-02 18:32:16","Desolation Wilderness","233261","2018-07-05 05:16:24","0","0","No","This is a Trailhead.","321","Cathedral","Trailhead",""
"2014-05-02 18:32:16","Desolation Wilderness","233261","2018-07-05 05:16:24","0","0","No","This is a Trailhead.","322","Tallac","Trailhead",""
"2014-05-02 18:32:16","Desolation Wilderness","233261","2018-07-05 05:16:24","0","0","No","This is a Trailhead.","323","Meeks Bay","Trailhead",""
"2014-05-02 18:32:16","Desolation Wilderness","233261","2018-07-05 05:16:24","0","0","No","This is a Trailhead.","324","Twin Lakes","Trailhead",""
"2014-05-02 18:32:16","Desolation Wilderness","233261","2018-07-05 05:16:24","0","0","No","This Zone includes Lawrence Lake, Top Lake, and Lake #9.  Access to this area is via the Red Peak Trail from the Van Vleck Trailhead, or the terminous of the Barrett Lake 4WD Trail at Barrett Lake.    Reservable Quota - 4","325","Lawrence","Entry Point",""
"2014-05-02 18:32:16","Desolation Wilderness","233261","2018-07-05 05:16:24","0","0","No","This Zone features the primitive Red Peak Stock Trail.  Trailhead access is from the Rockbound Trailhead via the Rockbound Trail and Willow Flat Primitive Trail.        Reservable Quota - 3","326","Red Peak","Entry Point",""
"2014-05-02 18:32:16","Desolation Wilderness","233261","2018-07-05 05:16:24","0","0","No","This zone includes the upper Rubicon River watershed in Rockbound Valley, Clyde Lake, Mosquito Pass and the north shore of Lake Aloha.  Primary access is from the Echo Lake Trailhead.  Additional access from the Rockbound Trailhead.                           Reservable Quota - 6","327","China Flat","Entry Point",""
"2014-05-02 18:32:16","Desolation Wilderness","233261","2018-07-05 05:16:24","0","0","No","This zone has Fontanillis Lake, Dicks Lake with the Pacific Crest Trail as its main trail artery.  Access is from  Eagle Falls or Bayview Trailheads, Lake Tahoe.                  Reservable Quota - 8","328","Dicks","Entry Point",""
"2014-05-02 18:32:16","Desolation Wilderness","233261","2018-07-05 05:16:24","0","0","No","This zone inlcudes Kalmia Lake, Snow Lake, and Tallac Lake. This is an off trail zone.  Reservable Quota - 3","329","Kalmia","Entry Point",""
"2014-05-02 18:32:16","Desolation Wilderness","233261","2018-07-05 05:16:24","0","0","No","This zone is located in the center of the Wilderness on the eastern slope of the Rockbound Valley and includes Dicks and Jacks Peaks.    Reservable Quota - 2","330","Dicks Peak","Entry Point",""
"2014-05-02 18:32:16","Desolation Wilderness","233261","2018-07-05 05:16:24","0","0","No","This zone surrounds Middle Velma Lake and is accessible from the Bayview or Eagle Falls Trailheads out of Emerald Bay, Lake Tahoe.  The Pacific Crest Trail passes by to the west.      Reservable Quota -10","331","Middle Velma","Entry Point",""
"2014-05-02 18:32:16","Desolation Wilderness","233261","2018-07-05 05:16:24","0","0","No","This zone includes Lower Velma Lake, Upper Velma Lake, Azure Lake, and Granite Lake.  Access to this zone is from Bayview or Eagle Falls Trailheads out of Emerald Bay, Lake Tahoe.    Reservable Quota - 20","332","Lower Velmas","Entry Point",""
